[{"PARCELNO":"21003809","address":"16610 HARPER","PROPNO":"16610","PROPDIR":"","PROPSTR":"HARPER","PROPZIP":"","WARD":"21","owner":"Manuel Moroun","OWNERNAME2":"","OWN_TYPE":"spec","OWNERSTR":"16017 SUMMER CT","OWNERCITY":"MACOMB","OWNERSTATE":"MI","OWNERZIP":"48044","PROPCLASS":"201","TAXSTATUS":"TAXABLE","SUBDIV":"","LEGALDES":"S HARPER 280 EASTERN HTS LAND COS SUB L48 P23 PLATS, W C R 21/716 21.19 X 100","lat":"42.41335571","long":"-82.94109299"},{"PARCELNO":"5000630.045","address":"1395 ANTIETAM 45","PROPNO":"1395","PROPDIR":"","PROPSTR":"ANTIETAM","PROPZIP":"","WARD":"5","owner":"Manuel Moroun","OWNERNAME2":"","OWN_TYPE":"spec","OWNERSTR":"3138 CASS AVE","OWNERCITY":"DETROIT","OWNERSTATE":"MI","OWNERZIP":"48201","PROPCLASS":"403","TAXSTATUS":"TAXABLE","SUBDIV":"","LEGALDES":"S ANTIETAM UNIT 45 ; WAYNE COUNTY CONDOMINIUM SUB PLAN NO. 675 inLELAND LOFTSin L36871 P70-115 DEEDS, FIRST AMENDMENT REC L39683 P10-20 DEEDS, WCR","lat":"42.340696","long":"-83.03733118"},{"PARCELNO":"5000630.05","address":"1395 ANTIETAM 50","PROPNO":"1395","PROPDIR":"","PROPSTR":"ANTIETAM","PROPZIP":"","WARD":"5","owner":"Manuel Moroun","OWNERNAME2":"","OWN_TYPE":"spec","OWNERSTR":"3138 CASS AVE","OWNERCITY":"DETROIT","OWNERSTATE":"MI","OWNERZIP":"48201","PROPCLASS":"403","TAXSTATUS":"TAXABLE","SUBDIV":"","LEGALDES":"S ANTIETAM UNIT 50 ; WAYNE COUNTY CONDOMINIUM SUB PLAN NO. 675 inLELAND LOFTSin L36871 P70-115 DEEDS, FIRST AMENDMENT REC L39683 P10-20 DEEDS, WCR","lat":"42.340696","long":"-83.03733118"},{"PARCELNO":"5000630.051","address":"1395 ANTIETAM 51","PROPNO":"1395","PROPDIR":"","PROPSTR":"ANTIETAM","PROPZIP":"","WARD":"5","owner":"Manuel Moroun","OWNERNAME2":"","OWN_TYPE":"spec","OWNERSTR":"3138 CASS AVE","OWNERCITY":"DETROIT","OWNERSTATE":"MI","OWNERZIP":"48201","PROPCLASS":"403","TAXSTATUS":"TAXABLE","SUBDIV":"","LEGALDES":"S ANTIETAM UNIT 51 ; WAYNE COUNTY CONDOMINIUM SUB PLAN NO. 675 inLELAND LOFTSin L36871 P70-115 DEEDS, FIRST AMENDMENT REC L39683 P10-20 DEEDS, WCR NEZ","lat":"42.340696","long":"-83.03733118"},{"PARCELNO":"5000630.061","address":"1395 ANTIETAM 61","PROPNO":"1395","PROPDIR":"","PROPSTR":"ANTIETAM","PROPZIP":"","WARD":"5","owner":"Manuel Moroun","OWNERNAME2":"","OWN_TYPE":"spec","OWNERSTR":"3138 CASS AVE","OWNERCITY":"DETROIT","OWNERSTATE":"MI","OWNERZIP":"48201","PROPCLASS":"403","TAXSTATUS":"TAXABLE","SUBDIV":"","LEGALDES":"S ANTIETAM UNIT 61 ; WAYNE COUNTY CONDOMINIUM SUB PLAN NO. 675 inLELAND LOFTSin L36871 P70-115 DEEDS, FIRST AMENDMENT REC L39683 P10-20 DEEDS, WCR NEZ","lat":"42.340696","long":"-83.03733118"},{"PARCELNO":"5000630.062","address":"1395 ANTIETAM 62","PROPNO":"1395","PROPDIR":"","PROPSTR":"ANTIETAM","PROPZIP":"","WARD":"5","owner":"Manuel Moroun","OWNERNAME2":"","OWN_TYPE":"spec","OWNERSTR":"3138 CASS AVE","OWNERCITY":"DETROIT","OWNERSTATE":"MI","OWNERZIP":"48201","PROPCLASS":"403","TAXSTATUS":"TAXABLE","SUBDIV":"","LEGALDES":"S ANTIETAM UNIT 62 ; WAYNE COUNTY CONDOMINIUM SUB PLAN NO. 675 inLELAND LOFTSin L36871 P70-115 DEEDS, FIRST AMENDMENT REC L39683 P10-20 DEEDS, WCR","lat":"42.340696","long":"-83.03733118"},{"PARCELNO":"5000630.059","address":"1395 ANTIETAM 59","PROPNO":"1395","PROPDIR":"","PROPSTR":"ANTIETAM","PROPZIP":"","WARD":"5","owner":"Manuel Moroun","OWNERNAME2":"","OWN_TYPE":"spec","OWNERSTR":"3138 CASS AVE","OWNERCITY":"DETROIT","OWNERSTATE":"MI","OWNERZIP":"48201","PROPCLASS":"403","TAXSTATUS":"TAXABLE","SUBDIV":"","LEGALDES":"S ANTIETAM UNIT 59 ; WAYNE COUNTY CONDOMINIUM SUB PLAN NO. 675 inLELAND LOFTSin L36871 P70-115 DEEDS, FIRST AMENDMENT REC L39683 P10-20 DEEDS, WCR NEZ","lat":"42.340696","long":"-83.03733118"},{"PARCELNO":"5000630.056","address":"1395 ANTIETAM 56","PROPNO":"1395","PROPDIR":"","PROPSTR":"ANTIETAM","PROPZIP":"","WARD":"5","owner":"Manuel Moroun","OWNERNAME2":"","OWN_TYPE":"spec","OWNERSTR":"3138 CASS AVE","OWNERCITY":"DETROIT","OWNERSTATE":"MI","OWNERZIP":"48201","PROPCLASS":"403","TAXSTATUS":"TAXABLE","SUBDIV":"","LEGALDES":"S ANTIETAM UNIT 56 ; WAYNE COUNTY CONDOMINIUM SUB PLAN NO. 675 inLELAND LOFTSin L36871 P70-115 DEEDS, FIRST AMENDMENT REC L39683 P10-20 DEEDS, WCR NEZ","lat":"42.340696","long":"-83.03733118"},{"PARCELNO":"5000629","address":"1391 ANTIETAM","PROPNO":"1391","PROPDIR":"","PROPSTR":"ANTIETAM","PROPZIP":"","WARD":"5","owner":"Manuel Moroun","OWNERNAME2":"","OWN_TYPE":"spec","OWNERSTR":"3138 CASS AVE","OWNERCITY":"DETROIT","OWNERSTATE":"MI","OWNERZIP":"48201","PROPCLASS":"301","TAXSTATUS":"TAXABLE","SUBDIV":"","LEGALDES":"N ANTIETAM PART OF LOT 28; DESC AS BEG AT NW COR SD LOT 28; TH N 59D 52M 15S E 58 FT; TH S 30D 02M 04S E 116.35 FT; TH S 65D 25M 15S W 66 FT; TH N 26D","lat":"42.34063994","long":"-83.03747467"},{"PARCELNO":"5000630.057","address":"1395 ANTIETAM 57","PROPNO":"1395","PROPDIR":"","PROPSTR":"ANTIETAM","PROPZIP":"","WARD":"5","owner":"Manuel Moroun","OWNERNAME2":"","OWN_TYPE":"spec","OWNERSTR":"3138 CASS AVE","OWNERCITY":"DETROIT","OWNERSTATE":"MI","OWNERZIP":"48201","PROPCLASS":"403","TAXSTATUS":"TAXABLE","SUBDIV":"","LEGALDES":"S ANTIETAM UNIT 57 ; WAYNE COUNTY CONDOMINIUM SUB PLAN NO. 675 inLELAND LOFTSin L36871 P70-115 DEEDS, FIRST AMENDMENT REC L39683 P10-20 DEEDS, WCR NEZ","lat":"42.340696","long":"-83.03733118"},{"PARCELNO":"7000025","address":"1490 FRANKLIN","PROPNO":"1490","PROPDIR":"","PROPSTR":"FRANKLIN","PROPZIP":"48207","WARD":"7","owner":"Manuel Moroun","OWNERNAME2":"","OWN_TYPE":"spec","OWNERSTR":"19730 RALSTON","OWNERCITY":"DETROIT","OWNERSTATE":"MI","OWNERZIP":"48203","PROPCLASS":"301","TAXSTATUS":"TAXABLE","SUBDIV":"RIOPELLE DOMINIQUE FARM","LEGALDES":"S FRANKLIN 22-23 E 22.79 FT ON N LINE BG E 22.46 FT ON S LINE 24 EXC S 30 FT OF SAID LOTS SUB OF RIOPELLE FARM L15 P394-5 CITY RECORDS, W C R 7/2 122.","lat":"42.33330311","long":"-83.03012943"},{"PARCELNO":"7000027","address":"1450 FRANKLIN","PROPNO":"1450","PROPDIR":"","PROPSTR":"FRANKLIN","PROPZIP":"48207","WARD":"7","owner":"Manuel Moroun","OWNERNAME2":"","OWN_TYPE":"spec","OWNERSTR":"19730 RALSTON","OWNERCITY":"DETROIT","OWNERSTATE":"MI","OWNERZIP":"48203","PROPCLASS":"301","TAXSTATUS":"TAXABLE","SUBDIV":"GOUIN FARM PLAT AS SUB BY","LEGALDES":"S FRANKLIN W 1/2 14 EXC S 30 FT PLAT OF GUOIN FARM L11 P596 DEEDS, W C R 7/3 27.16 X 101.96A","lat":"42.3330432","long":"-83.03070869"},{"PARCELNO":"7000026","address":"1460 FRANKLIN","PROPNO":"1460","PROPDIR":"","PROPSTR":"FRANKLIN","PROPZIP":"48207","WARD":"7","owner":"Manuel Moroun","OWNERNAME2":"","OWN_TYPE":"spec","OWNERSTR":"19730 RALSTON","OWNERCITY":"DETROIT","OWNERSTATE":"MI","OWNERZIP":"48203","PROPCLASS":"301","TAXSTATUS":"TAXABLE","SUBDIV":"MORE THAN ONE SUBDIVISION","LEGALDES":"S FRANKLIN W 27.29 FT ON N LINE BG W 27.62 FT ON S LINE 24 EXC S 30 FT SUB OF RIOPELLE FARM L15 P394-5 CITY RECORDS, WCR 7/2 13 E 1/2 14 EXC S 30 FT P","lat":"42.33313294","long":"-83.0304989"},{"PARCELNO":"9024173","address":"20022 COVENTRY","PROPNO":"20022","PROPDIR":"","PROPSTR":"COVENTRY","PROPZIP":"48203","WARD":"9","owner":"Manuel Moroun","OWNERNAME2":"","OWN_TYPE":"spec","OWNERSTR":"20022 COVENTRY","OWNERCITY":"DETROIT","OWNERSTATE":"MI","OWNERZIP":"48203","PROPCLASS":"401","TAXSTATUS":"TAXABLE","SUBDIV":"GILMORE & CHAVENELLES SUB","LEGALDES":"E COVENTRY 182 GILMORE & CHAVENELLES SUB L38 P94 PLATS, W C R 9/193 35 X 100","lat":"42.44134102","long":"-83.10154319"},{"PARCELNO":"21076034","address":"5783 WOODHALL","PROPNO":"5783","PROPDIR":"","PROPSTR":"WOODHALL","PROPZIP":"48224","WARD":"21","owner":"Manuel Moroun","OWNERNAME2":"","OWN_TYPE":"spec","OWNERSTR":"20836 HALL RD STE 203","OWNERCITY":"CLINTON TWP","OWNERSTATE":"MI","OWNERZIP":"48038","PROPCLASS":"401","TAXSTATUS":"TAXABLE","SUBDIV":"GROSSE POINTE HIGHLANDS A","LEGALDES":"W WOODHALL 111 GROSSE PTE HIGHLANDS ANNEX SUB L42 P52 PLATS, W C R 21/815 50 X 114.46","lat":"42.41349091","long":"-82.93008815"},{"PARCELNO":"21071703","address":"5035 COURVILLE","PROPNO":"5035","PROPDIR":"","PROPSTR":"COURVILLE","PROPZIP":"48224","WARD":"21","owner":"Manuel Moroun","OWNERNAME2":"","OWN_TYPE":"spec","OWNERSTR":"20836 HALL RD STE 203","OWNERCITY":"CLINTON TWP","OWNERSTATE":"MI","OWNERZIP":"48038","PROPCLASS":"401","TAXSTATUS":"TAXABLE","SUBDIV":"HENRY RUSSELLS THREE MILE","LEGALDES":"W COURVILLE 596 HENRY RUSSELLS THREE MILE DRIVE SUB NO 1 L46 P20 PLATS, W C R 21/699 40 X 120","lat":"42.40329144","long":"-82.9393587"},{"PARCELNO":"6002916","address":"1167 LAWRENCE","PROPNO":"1167","PROPDIR":"","PROPSTR":"LAWRENCE","PROPZIP":"48206","WARD":"6","owner":"Manuel Moroun","OWNERNAME2":"","OWN_TYPE":"spec","OWNERSTR":"1225 PINGREE ST","OWNERCITY":"DETROIT","OWNERSTATE":"MI","OWNERZIP":"48202-1945","PROPCLASS":"401","TAXSTATUS":"TAXABLE","SUBDIV":"LAWRENCE PARK (PLATS)","LEGALDES":"S LAWRENCE 137 LAWRENCE PARK SUB L28 P49 PLATS, W C R 6/123 35 X 110","lat":"42.38746609","long":"-83.09697858"},{"PARCELNO":"12012695","address":"15810 QUINCY","PROPNO":"15810","PROPDIR":"","PROPSTR":"QUINCY","PROPZIP":"48221","WARD":"12","owner":"Manuel Moroun","OWNERNAME2":"","OWN_TYPE":"spec","OWNERSTR":"1225 PINGREE ST","OWNERCITY":"DETROIT","OWNERSTATE":"MI","OWNERZIP":"48202-1945","PROPCLASS":"401","TAXSTATUS":"TAXABLE","SUBDIV":"ROYCROFT (PLATS)","LEGALDES":"E QUINCY 52 ROYCROFT SUB L35 P99 PLATS, WCR 12/238 30 X 100","lat":"42.40737167","long":"-83.13836199"},{"PARCELNO":"19007268","address":"9232 GOETHE","PROPNO":"9232","PROPDIR":"","PROPSTR":"GOETHE","PROPZIP":"48214","WARD":"19","owner":"Manuel Moroun","OWNERNAME2":"","OWN_TYPE":"spec","OWNERSTR":"1225 PINGREE ST","OWNERCITY":"DETROIT","OWNERSTATE":"MI","OWNERZIP":"48202","PROPCLASS":"401","TAXSTATUS":"TAXABLE","SUBDIV":"STOEPELS SUB OF LOTS 7 TH","LEGALDES":"W MC CLELLAN 3 STOEPELS SUB L16 P94 PLATS, W C R 19/51 30 X 112","lat":"42.36961256","long":"-82.99269991"},{"PARCELNO":"22062215","address":"9909 ASBURY PARK","PROPNO":"9909","PROPDIR":"","PROPSTR":"ASBURY PARK","PROPZIP":"48227","WARD":"22","owner":"Manuel Moroun","OWNERNAME2":"","OWN_TYPE":"spec","OWNERSTR":"P O BOX 251145","OWNERCITY":"WEST BLOOMFIELD","OWNERSTATE":"MI","OWNERZIP":"48325","PROPCLASS":"401","TAXSTATUS":"TAXABLE","SUBDIV":"FRISCHKORNS GRAND-DALE (P","LEGALDES":"W ASBURY PARK 801 FRISCHKORNS GRAND-DALE SUB L50 P66 PLATS, W C R 22/196 35 X 117.75","lat":"42.36788876","long":"-83.20709738"},{"PARCELNO":"22026333","address":"9999 CHEYENNE","PROPNO":"9999","PROPDIR":"","PROPSTR":"CHEYENNE","PROPZIP":"48227","WARD":"22","owner":"Manuel Moroun","OWNERNAME2":"","OWN_TYPE":"spec","OWNERSTR":"PO BOX 251145","OWNERCITY":"WEST BLOOMFIELD","OWNERSTATE":"MI","OWNERZIP":"48325-1145","PROPCLASS":"401","TAXSTATUS":"TAXABLE","SUBDIV":"BUCKINGHAM PARK (PLATS)","LEGALDES":"W CHEYENNE 351 BUCKINGHAM PARK SUB L34 P20 PLATS, W C R 22/572 40 X 125","lat":"42.36979788","long":"-83.17421805"},{"PARCELNO":"22051635","address":"9950 WINTHROP","PROPNO":"9950","PROPDIR":"","PROPSTR":"WINTHROP","PROPZIP":"48227","WARD":"22","owner":"Manuel Moroun","OWNERNAME2":"","OWN_TYPE":"spec","OWNERSTR":"PO BOX 251145","OWNERCITY":"WEST BLOOMFIELD","OWNERSTATE":"MI","OWNERZIP":"48325-1053","PROPCLASS":"401","TAXSTATUS":"TAXABLE","SUBDIV":"FRISCHKORNS DYNAMIC (PLAT","LEGALDES":"E WINTHROP 200 FRISCHKORNS DYNAMIC SUB L48 P66 PLATS, W C R 22/194 35 X 125","lat":"42.36859973","long":"-83.19852381"},{"PARCELNO":"21079393-4","address":"18619 MOROSS","PROPNO":"18619","PROPDIR":"","PROPSTR":"MOROSS","PROPZIP":"48236","WARD":"21","owner":"Manuel Moroun","OWNERNAME2":"","OWN_TYPE":"spec","OWNERSTR":"16639 ROSSINI DR","OWNERCITY":"DETROIT","OWNERSTATE":"MI","OWNERZIP":"48205-2066","PROPCLASS":"401","TAXSTATUS":"TAXABLE","SUBDIV":"EAST PARK MANOR #1","LEGALDES":"E MOROSS RD W 9.5 FT 635 636 E 7 FT 637 AND VAC ALLEY ADJ EAST PARK MANOR NO 1 L55 P75 PLATS, W C R 21/890 36.5 X 100","lat":"42.43418494","long":"-82.95162702"},{"PARCELNO":"21079164","address":"20217 MOROSS","PROPNO":"20217","PROPDIR":"","PROPSTR":"MOROSS","PROPZIP":"48236","WARD":"21","owner":"Manuel Moroun","OWNERNAME2":"","OWN_TYPE":"spec","OWNERSTR":"16639 ROSSINI DR","OWNERCITY":"DETROIT","OWNERSTATE":"MI","OWNERZIP":"48205-2066","PROPCLASS":"401","TAXSTATUS":"TAXABLE","SUBDIV":"EAST PARK MANOR","LEGALDES":"E MOROSS N 80 FT OF W 10 FT 150 N 80 FT 151 AND S 10 FT OF VAC ALLEY ADJ EAST PARK MANOR SUB L54 P45 PLATS, W C R 21/891 30 X 90","lat":"42.42743021","long":"-82.93510188"},{"PARCELNO":"16038773","address":"16150 JAMES COUZENS","PROPNO":"16150","PROPDIR":"","PROPSTR":"JAMES COUZENS","PROPZIP":"48221","WARD":"16","owner":"Manuel Moroun","OWNERNAME2":"","OWN_TYPE":"spec","OWNERSTR":"18264 JAMES COUZENS FWY","OWNERCITY":"DETROIT","OWNERSTATE":"MI","OWNERZIP":"48235-2503","PROPCLASS":"201","TAXSTATUS":"TAXABLE","SUBDIV":"NORTHWESTERN PURITAN (PLA","LEGALDES":"E JAMES COUZENS DR 279 EXC JAMES COUZENS HWY AS WD NORTHWESTERN PURITAN SUB L46 P31 PLATS, W C R 16/383 20 X 51","lat":"42.41022163","long":"-83.16526802"},{"PARCELNO":"21051756","address":"1423 COPLIN","PROPNO":"1423","PROPDIR":"","PROPSTR":"COPLIN","PROPZIP":"48215","WARD":"21","owner":"Manuel Moroun","OWNERNAME2":"","OWN_TYPE":"spec","OWNERSTR":"18264 JAMES COUZENS FWY","OWNERCITY":"DETROIT","OWNERSTATE":"MI","OWNERZIP":"48235-2503","PROPCLASS":"401","TAXSTATUS":"TAXABLE","SUBDIV":"LAKE VIEW (PLATS)","LEGALDES":"W COPLIN 67 LAKE VIEW SUB L16 P36 PLATS, W C R 21/308 30 X 108","lat":"42.37636093","long":"-82.95287874"},{"PARCELNO":"21018169","address":"13651 GLENWOOD","PROPNO":"13651","PROPDIR":"","PROPSTR":"GLENWOOD","PROPZIP":"48205","WARD":"21","owner":"Manuel Moroun","OWNERNAME2":"","OWN_TYPE":"spec","OWNERSTR":"18264 JAMES COUZENS FWY","OWNERCITY":"DETROIT","OWNERSTATE":"MI","OWNERZIP":"48235-2503","PROPCLASS":"401","TAXSTATUS":"TAXABLE","SUBDIV":"PULCHER EST SUB (PLATS)","LEGALDES":"N GLENWOOD 145 PULCHER ESTATE SUB L44 P76 PLATS, W C R 21/656 40 X 115","lat":"42.43054714","long":"-82.98385128"},{"PARCELNO":"21049237","address":"4189 DICKERSON","PROPNO":"4189","PROPDIR":"","PROPSTR":"DICKERSON","PROPZIP":"48215","WARD":"21","owner":"Manuel Moroun","OWNERNAME2":"","OWN_TYPE":"spec","OWNERSTR":"18264 JAMES COUZENS FWY","OWNERCITY":"DETROIT","OWNERSTATE":"MI","OWNERZIP":"48235-2503","PROPCLASS":"401","TAXSTATUS":"TAXABLE","SUBDIV":"DANIEL J CAMPAUS (PLATS)","LEGALDES":"W DICKERSON 73 DANIEL J CAMPAUS SUB L42 P19 PLATS, W C R 21/649 35 X 122","lat":"42.3866618","long":"-82.96325886"},{"PARCELNO":"21051754","address":"1435 COPLIN","PROPNO":"1435","PROPDIR":"","PROPSTR":"COPLIN","PROPZIP":"48215","WARD":"21","owner":"Manuel Moroun","OWNERNAME2":"","OWN_TYPE":"spec","OWNERSTR":"18264 JAMES COUZENS FWY","OWNERCITY":"DETROIT","OWNERSTATE":"MI","OWNERZIP":"48235-2503","PROPCLASS":"401","TAXSTATUS":"TAXABLE","SUBDIV":"LAKE VIEW (PLATS)","LEGALDES":"W COPLIN 69 LAKE VIEW SUB L16 P36 PLATS, W C R 21/308 30 X 108","lat":"42.37651128","long":"-82.95296848"},{"PARCELNO":"22116473-4","address":"15719 LAMPHERE","PROPNO":"15719","PROPDIR":"","PROPSTR":"LAMPHERE","PROPZIP":"48223","WARD":"22","owner":"Manuel Moroun","OWNERNAME2":"","OWN_TYPE":"spec","OWNERSTR":"18412 RYAN RD","OWNERCITY":"DETROIT","OWNERSTATE":"MI","OWNERZIP":"48234","PROPCLASS":"401","TAXSTATUS":"TAXABLE","SUBDIV":"ABERDEEN HEIGHTS SUB","LEGALDES":"W LAMPHERE S 3 FT 9 10 N 14 FT 11 ABERDEEN HEIGHTS SUB L49 P52 PLATS, W C R 22/481 37 X 130","lat":"42.40431826","long":"-83.26192812"},{"PARCELNO":"21021701","address":"15002 LAPPIN","PROPNO":"15002","PROPDIR":"","PROPSTR":"LAPPIN","PROPZIP":"48205","WARD":"21","owner":"Manuel Moroun","OWNERNAME2":"","OWN_TYPE":"spec","OWNERSTR":"18412 RYAN RD","OWNERCITY":"DETROIT","OWNERSTATE":"MI","OWNERZIP":"48205","PROPCLASS":"401","TAXSTATUS":"TAXABLE","SUBDIV":"GRATIOT AMERICAN PARK","LEGALDES":"S LAPPIN 275 GRATIOT AMERICAN PARK SUB L38 P55 PLATS, W C R 21/707 35 X 120","lat":"42.43713233","long":"-82.96665985"},{"PARCELNO":"19003653","address":"6540 BEWICK","PROPNO":"6540","PROPDIR":"","PROPSTR":"BEWICK","PROPZIP":"48213","WARD":"19","owner":"Manuel Moroun","OWNERNAME2":"","OWN_TYPE":"spec","OWNERSTR":"PO BOX 1067","OWNERCITY":"BIRMINGHAM","OWNERSTATE":"MI","OWNERZIP":"48012-1067","PROPCLASS":"401","TAXSTATUS":"TAXABLE","SUBDIV":"CHRISTYS (PLATS)","LEGALDES":"E BEWICK 47 BLK 1 CHRISTYS SUB L23 P47 PLATS, W C R 19/421 30 X 129.49","lat":"42.39427847","long":"-83.00198328"},{"PARCELNO":"21006644","address":"12345 MAIDEN","PROPNO":"12345","PROPDIR":"","PROPSTR":"MAIDEN","PROPZIP":"48213","WARD":"21","owner":"Manuel Moroun","OWNERNAME2":"","OWN_TYPE":"spec","OWNERSTR":"PO BOX 1067","OWNERCITY":"BIRMINGHAM","OWNERSTATE":"MI","OWNERZIP":"48012-1067","PROPCLASS":"401","TAXSTATUS":"TAXABLE","SUBDIV":"RAVENDALE #1","LEGALDES":"N MAIDEN 460 RAVENDALE SUB NO 1 L46 P72 PLATS, W C R 21/688 35 X 110","lat":"42.4038066","long":"-82.98104936"},{"PARCELNO":"19003652","address":"6536 BEWICK","PROPNO":"6536","PROPDIR":"","PROPSTR":"BEWICK","PROPZIP":"48213","WARD":"19","owner":"Manuel Moroun","OWNERNAME2":"","OWN_TYPE":"spec","OWNERSTR":"PO BOX 1067","OWNERCITY":"BIRMINGHAM","OWNERSTATE":"MI","OWNERZIP":"48012-1067","PROPCLASS":"401","TAXSTATUS":"TAXABLE","SUBDIV":"CHRISTYS (PLATS)","LEGALDES":"E BEWICK 46 BLK 1 CHRISTYS SUB L23 P47 PLATS, W C R 19/421 30 X 129.49","lat":"42.39419805","long":"-83.00193316"},{"PARCELNO":"21010747","address":"14483 GLENFIELD","PROPNO":"14483","PROPDIR":"","PROPSTR":"GLENFIELD","PROPZIP":"48213","WARD":"21","owner":"Manuel Moroun","OWNERNAME2":"","OWN_TYPE":"spec","OWNERSTR":"PO BOX 1067","OWNERCITY":"BIRMINGHAM","OWNERSTATE":"MI","OWNERZIP":"48012-1067","PROPCLASS":"401","TAXSTATUS":"TAXABLE","SUBDIV":"TEMPLETON","LEGALDES":"N GLENFIELD 56 TEMPLETON SUB L51 P75 PLATS, W C R 21/763 35X111.2","lat":"42.41823574","long":"-82.97133825"},{"PARCELNO":"21011237","address":"14860 FLANDERS","PROPNO":"14860","PROPDIR":"","PROPSTR":"FLANDERS","PROPZIP":"48205","WARD":"21","owner":"Manuel Moroun","OWNERNAME2":"","OWN_TYPE":"spec","OWNERSTR":"PO BOX 1067","OWNERCITY":"BIRMINGHAM","OWNERSTATE":"MI","OWNERZIP":"48012-1067","PROPCLASS":"401","TAXSTATUS":"TAXABLE","SUBDIV":"PARK DRIVE SUB NO 2","LEGALDES":"S FLANDERS AVE 800 PARK DRIVE SUB NO 2 L52 P63 PLATS, W C R 21/848 35 X 101","lat":"42.41989195","long":"-82.96814006"},{"PARCELNO":"21011224","address":"14960 FLANDERS","PROPNO":"14960","PROPDIR":"","PROPSTR":"FLANDERS","PROPZIP":"48205","WARD":"21","owner":"Manuel Moroun","OWNERNAME2":"","OWN_TYPE":"spec","OWNERSTR":"PO BOX 1067","OWNERCITY":"BIRMINGHAM","OWNERSTATE":"MI","OWNERZIP":"48012-1067","PROPCLASS":"401","TAXSTATUS":"TAXABLE","SUBDIV":"DALBY-HAYES LAND CO CRAFT","LEGALDES":"S FLANDERS AVE 193 DALBY-HAYES LAND CO CRAFTSCOMMUNE SUB L46 P22 PLATS, W C R 21/784 35 X 101","lat":"42.41991176","long":"-82.96624026"},{"PARCELNO":"21015582","address":"12780 ALCOY","PROPNO":"12780","PROPDIR":"","PROPSTR":"ALCOY","PROPZIP":"48205","WARD":"21","owner":"Manuel Moroun","OWNERNAME2":"","OWN_TYPE":"spec","OWNERSTR":"PO BOX 1067","OWNERCITY":"BIRMINGHAM","OWNERSTATE":"MI","OWNERZIP":"48012-1067","PROPCLASS":"401","TAXSTATUS":"TAXABLE","SUBDIV":"MICHAEL GREINER ESTATE (P","LEGALDES":"E ALCOY 360 MICHAEL GREINER ESTATE L41 P67 PLATS, W C R 21/611 40 X 102.54","lat":"42.42460415","long":"-82.98641425"},{"PARCELNO":"21016654","address":"14244 TROESTER","PROPNO":"14244","PROPDIR":"","PROPSTR":"TROESTER","PROPZIP":"48205","WARD":"21","owner":"Manuel Moroun","OWNERNAME2":"","OWN_TYPE":"spec","OWNERSTR":"PO BOX 1067","OWNERCITY":"BIRMINGHAM","OWNERSTATE":"MI","OWNERZIP":"48012-1067","PROPCLASS":"401","TAXSTATUS":"TAXABLE","SUBDIV":"SEYMOUR & TROESTERS MONTC","LEGALDES":"S TROESTER 83 AND N 8 FT VAC ALLEY ADJ SEYMOUR & TROESTERS MONTCLAIR HEIGHTS SUB L35 P41 PLATS, W C R 21/445 35 X 117.39A","lat":"42.42623238","long":"-82.97614019"},{"PARCELNO":"21029812","address":"18539 SCHOENHERR","PROPNO":"18539","PROPDIR":"","PROPSTR":"SCHOENHERR","PROPZIP":"48205","WARD":"21","owner":"Manuel Moroun","OWNERNAME2":"","OWN_TYPE":"spec","OWNERSTR":"PO BOX 1067","OWNERCITY":"BIRMINGHAM","OWNERSTATE":"MI","OWNERZIP":"48012-1067","PROPCLASS":"401","TAXSTATUS":"TAXABLE","SUBDIV":"ASSESSORS PLAT OF PART OF","LEGALDES":"W SCHOENHERR 5 ASSESSORS PLAT L66 P54 PLATS, W C R 21/1000 33 X 124.51","lat":"42.43106812","long":"-82.98498766"},{"PARCELNO":"21031900","address":"18675 WESTPHALIA","PROPNO":"18675","PROPDIR":"","PROPSTR":"WESTPHALIA","PROPZIP":"48205","WARD":"21","owner":"Manuel Moroun","OWNERNAME2":"","OWN_TYPE":"spec","OWNERSTR":"PO BOX 1067","OWNERCITY":"BIRMINGHAM","OWNERSTATE":"MI","OWNERZIP":"48012-1067","PROPCLASS":"401","TAXSTATUS":"TAXABLE","SUBDIV":"GRATIOT MEADOWS (PLATS)","LEGALDES":"W WESTPHALIA 259 GRATIOT MEADOW SUB L46 P57 PLATS, W C R 21/687 35 X 128","lat":"42.43221733","long":"-82.99234792"},{"PARCELNO":"21033474","address":"12621 BARLOW","PROPNO":"12621","PROPDIR":"","PROPSTR":"BARLOW","PROPZIP":"48205","WARD":"21","owner":"Manuel Moroun","OWNERNAME2":"","OWN_TYPE":"spec","OWNERSTR":"PO BOX 1067","OWNERCITY":"BIRMINGHAM","OWNERSTATE":"MI","OWNERZIP":"48012-1067","PROPCLASS":"401","TAXSTATUS":"TAXABLE","SUBDIV":"GRATIOT HIGHLANDS SUB","LEGALDES":"W BARLOW 82 BLK E GRATIOT HIGHLANDS SUB L29 P64 PLATS, W C R 21/446 40 X 100.90","lat":"42.42165538","long":"-82.99340854"},{"PARCELNO":"21011233","address":"14890 FLANDERS","PROPNO":"14890","PROPDIR":"","PROPSTR":"FLANDERS","PROPZIP":"48205","WARD":"21","owner":"Manuel Moroun","OWNERNAME2":"","OWN_TYPE":"spec","OWNERSTR":"PO BOX 33","OWNERCITY":"ST CLAIR SHORES","OWNERSTATE":"MI","OWNERZIP":"48011","PROPCLASS":"401","TAXSTATUS":"TAXABLE","SUBDIV":"PARK DRIVE SUB NO 2","LEGALDES":"S FLANDERS AVE 796 PARK DRIVE SUB NO 2 L52 P63 PLATS, W C R 21/848 30 IRREG","lat":"42.41989195","long":"-82.96770066"},{"PARCELNO":"21010198","address":"14753 KILBOURNE","PROPNO":"14753","PROPDIR":"","PROPSTR":"KILBOURNE","PROPZIP":"48213","WARD":"21","owner":"Manuel Moroun","OWNERNAME2":"","OWN_TYPE":"spec","OWNERSTR":"PO BOX 33","OWNERCITY":"ST CLAIR SHORES","OWNERSTATE":"MI","OWNERZIP":"48011","PROPCLASS":"401","TAXSTATUS":"TAXABLE","SUBDIV":"MC GIVERIN HALDEMANS CHAL","LEGALDES":"N KILBOURNE 186 MCGIVERIN HALDEMANS CHALMERS AVE SUB NO 1 L52 P51 PLATS, W C R 21/911 35 X 116.02A","lat":"42.41666695","long":"-82.96900021"},{"PARCELNO":"21012333","address":"12421 LORETTO","PROPNO":"12421","PROPDIR":"","PROPSTR":"LORETTO","PROPZIP":"48205","WARD":"21","owner":"Manuel Moroun","OWNERNAME2":"","OWN_TYPE":"spec","OWNERSTR":"PO BOX 33","OWNERCITY":"ST CLAIR SHORES","OWNERSTATE":"MI","OWNERZIP":"48081","PROPCLASS":"401","TAXSTATUS":"TAXABLE","SUBDIV":"J S VISGERS LORETTO (PLAT","LEGALDES":"N LORETTO 141 J S VISGERS LORETTO SUB L18 P67 PLATS, W C R 21/436 30 X 110","lat":"42.41626601","long":"-82.98838049"},{"PARCELNO":"21016756","address":"14411 TROESTER","PROPNO":"14411","PROPDIR":"","PROPSTR":"TROESTER","PROPZIP":"48205","WARD":"21","owner":"Manuel Moroun","OWNERNAME2":"","OWN_TYPE":"spec","OWNERSTR":"PO BOX 33","OWNERCITY":"ST CLAIR SHORES","OWNERSTATE":"MI","OWNERZIP":"48081","PROPCLASS":"401","TAXSTATUS":"TAXABLE","SUBDIV":"YOUNGS GRATIOT VIEW (PLAT","LEGALDES":"N TROESTER 324 YOUNGS GRATIOT VIEW SUB L40 P53 PLATS, W C R 21/607 35 X 104.32","lat":"42.42630697","long":"-82.97471126"},{"PARCELNO":"21019432","address":"14280 EASTWOOD","PROPNO":"14280","PROPDIR":"","PROPSTR":"EASTWOOD","PROPZIP":"48205","WARD":"21","owner":"Manuel Moroun","OWNERNAME2":"","OWN_TYPE":"spec","OWNERSTR":"PO BOX 33","OWNERCITY":"ST CLAIR SHORES","OWNERSTATE":"MI","OWNERZIP":"48081","PROPCLASS":"401","TAXSTATUS":"TAXABLE","SUBDIV":"SEYMOUR & TROESTERS MONTC","LEGALDES":"S EASTWOOD 1047 SEYMOUR & TROESTERS MONTCLAIR HEIGHTS SUB NO 2 L40 P74 PLATS, W C R 21/594 36 X 103","lat":"42.43351222","long":"-82.97567049"},{"PARCELNO":"22038356","address":"15367 STRATHMOOR","PROPNO":"15367","PROPDIR":"","PROPSTR":"STRATHMOOR","PROPZIP":"48227","WARD":"22","owner":"Manuel Moroun","OWNERNAME2":"","OWN_TYPE":"spec","OWNERSTR":"17311 MONICA","OWNERCITY":"DETROIT","OWNERSTATE":"MI","OWNERZIP":"48221","PROPCLASS":"401","TAXSTATUS":"TAXABLE","SUBDIV":"ARBOR PARK (PLATS)","LEGALDES":"W STRATHMOOR S 31 FT 35 ARBOR PARK SUB L37 P46 PLATS, W C R 22/107 31 X 111","lat":"42.4031679","long":"-83.18785814"},{"PARCELNO":"22038357","address":"15361 STRATHMOOR","PROPNO":"15361","PROPDIR":"","PROPSTR":"STRATHMOOR","PROPZIP":"48227","WARD":"22","owner":"Manuel Moroun","OWNERNAME2":"","OWN_TYPE":"spec","OWNERSTR":"17311 MONICA","OWNERCITY":"DETROIT","OWNERSTATE":"MI","OWNERZIP":"48221","PROPCLASS":"401","TAXSTATUS":"TAXABLE","SUBDIV":"ARBOR PARK (PLATS)","LEGALDES":"W STRATHMOOR 36 ARBOR PARK SUB L37 P46 PLATS, W C R 22/107 35 X 111","lat":"42.40307815","long":"-83.18784765"},{"PARCELNO":"21028835","address":"11034 GRATIOT","PROPNO":"11034","PROPDIR":"","PROPSTR":"GRATIOT","PROPZIP":"48213","WARD":"21","owner":"Manuel Moroun","OWNERNAME2":"","OWN_TYPE":"spec","OWNERSTR":"1111 NORTH YORK ST","OWNERCITY":"DEARBORN","OWNERSTATE":"MI","OWNERZIP":"48128","PROPCLASS":"201","TAXSTATUS":"TAXABLE","SUBDIV":"DAVID TROMBLY ESTATES NO","LEGALDES":"S GRATIOT AVE 200 DAVID TROMBLEY ESTATES SUB NO 2 L40 P47 PLATS, W C R 21/593 57.94 IRREG","lat":"42.40670991","long":"-82.99626407"},{"PARCELNO":"21028834","address":"11042 GRATIOT","PROPNO":"11042","PROPDIR":"","PROPSTR":"GRATIOT","PROPZIP":"48213","WARD":"21","owner":"Manuel Moroun","OWNERNAME2":"","OWN_TYPE":"spec","OWNERSTR":"1111 NORTH YORK ST","OWNERCITY":"DEARBORN","OWNERSTATE":"MI","OWNERZIP":"48128","PROPCLASS":"201","TAXSTATUS":"TAXABLE","SUBDIV":"DAVID TROMBLY ESTATES NO","LEGALDES":"S GRATIOT AVE 201 DAVID TROMBLEY ESTATES SUB NO 2 L40 P47 PLATS, W C R 21/593 20 IRREG","lat":"42.4067612","long":"-82.9962326"},{"PARCELNO":"21028832-3","address":"11048 GRATIOT","PROPNO":"11048","PROPDIR":"","PROPSTR":"GRATIOT","PROPZIP":"48213","WARD":"21","owner":"Manuel Moroun","OWNERNAME2":"","OWN_TYPE":"spec","OWNERSTR":"1111 NORTH YORK ST","OWNERCITY":"DEARBORN","OWNERSTATE":"MI","OWNERZIP":"48128","PROPCLASS":"201","TAXSTATUS":"TAXABLE","SUBDIV":"DAVID TROMBLY ESTATES NO","LEGALDES":"S GRATIOT AVE 203&202 DAVID TROMBLEY ESTATE SUB NO 2 L40 P47 PLATS, W C R 21/593 40 X 100","lat":"42.40683113","long":"-82.99618365"},{"PARCELNO":"09008702-7","address":"17853 CONANT","PROPNO":"17853","PROPDIR":"","PROPSTR":"CONANT","PROPZIP":"48212","WARD":"9","owner":"Manuel Moroun","OWNERNAME2":"","OWN_TYPE":"spec","OWNERSTR":"17853 CONANT ST","OWNERCITY":"DETROIT","OWNERSTATE":"MI","OWNERZIP":"48212-1170","PROPCLASS":"301","TAXSTATUS":"TAXABLE","SUBDIV":"MORE THAN ONE SUBDIVISION","LEGALDES":"W CONANT ALL THAT TRIANG PT OF S E 1/4 OF SEC 7 T 1 S R 12 E DESC AS FOLS BG AT N W CORNER OF KLINGER & CONANT TH N 24D 20M 5S W LINE OF CONANT AVE 12","lat":"42.42457035","long":"-83.06772795"},{"PARCELNO":"9012264","address":"13885 ANGLIN","PROPNO":"13885","PROPDIR":"","PROPSTR":"ANGLIN","PROPZIP":"48212","WARD":"9","owner":"Manuel Moroun","OWNERNAME2":"","OWN_TYPE":"spec","OWNERSTR":"P O BOX 3141","OWNERCITY":"SOUTHFIELD","OWNERSTATE":"MI","OWNERZIP":"48037","PROPCLASS":"401","TAXSTATUS":"TAXABLE","SUBDIV":"NORTH CHENE ST","LEGALDES":"W ANGLIN 42 NORTH CHENE STREET SUB L16 P61 PLATS, W C R 9/143 30 X 100","lat":"42.41595132","long":"-83.07192849"},{"PARCELNO":"21016441","address":"14135 CEDARGROVE","PROPNO":"14135","PROPDIR":"","PROPSTR":"CEDARGROVE","PROPZIP":"48205","WARD":"21","owner":"Manuel Moroun","OWNERNAME2":"","OWN_TYPE":"spec","OWNERSTR":"P O BOX 3141","OWNERCITY":"SOUTHFIELD","OWNERSTATE":"MI","OWNERZIP":"48037","PROPCLASS":"401","TAXSTATUS":"TAXABLE","SUBDIV":"SEYMOUR & TROESTERS MONTC","LEGALDES":"N CEDARGROVE 117 SEYMOUR & TROESTERS MONTCLAIR HEIGHTS SUB L35 P41 PLATS, W C R 21/445 35 X 110","lat":"42.425427","long":"-82.97879059"},{"PARCELNO":"21033676","address":"12692 HAMBURG","PROPNO":"12692","PROPDIR":"","PROPSTR":"HAMBURG","PROPZIP":"48205","WARD":"21","owner":"Manuel Moroun","OWNERNAME2":"","OWN_TYPE":"spec","OWNERSTR":"P O BOX 3141","OWNERCITY":"SOUTHFIELD","OWNERSTATE":"MI","OWNERZIP":"48037","PROPCLASS":"401","TAXSTATUS":"TAXABLE","SUBDIV":"GRATIOT HIGHLANDS SUB","LEGALDES":"E HAMBURG 55 BLK F GRATIOT HIGHLANDS SUB L29 P64 PLATS, W C R 21/446 40 X 100.9","lat":"42.42131388","long":"-82.99571278"},{"PARCELNO":"22040582","address":"12044 MARLOWE","PROPNO":"12044","PROPDIR":"","PROPSTR":"MARLOWE","PROPZIP":"48227","WARD":"22","owner":"Manuel Moroun","OWNERNAME2":"","OWN_TYPE":"spec","OWNERSTR":"P O BOX 3141","OWNERCITY":"SOUTHFIELD","OWNERSTATE":"MI","OWNERZIP":"48037","PROPCLASS":"401","TAXSTATUS":"TAXABLE","SUBDIV":"BROADMOOR SUB","LEGALDES":"E MARLOWE 552 BROADMOOR SUB L41 P48 PLATS, W C R 22/578 40 X 107.25","lat":"42.37569075","long":"-83.18890361"},{"PARCELNO":"21069807","address":"5559 BUCKINGHAM","PROPNO":"5559","PROPDIR":"","PROPSTR":"BUCKINGHAM","PROPZIP":"48224","WARD":"21","owner":"Manuel Moroun","OWNERNAME2":"","OWN_TYPE":"spec","OWNERSTR":"18627 BROOKHURST ST #167","OWNERCITY":"FOUNTAIN VALLEY","OWNERSTATE":"CA","OWNERZIP":"92708","PROPCLASS":"401","TAXSTATUS":"TAXABLE","SUBDIV":"EAST DETROIT DEVELOPMENT","LEGALDES":"W BUCKINGHAM 931 EAST DETROIT DEVELOPMENT COS SUB NO 2 L36 P20 PLATS, WCR 21/426 40 X 114","lat":"42.40504205","long":"-82.94652898"},{"PARCELNO":"2000138","address":"202 W LARNED","PROPNO":"202","PROPDIR":"W","PROPSTR":"LARNED","PROPZIP":"48226","WARD":"2","owner":"Manuel Moroun","OWNERNAME2":"","OWN_TYPE":"spec","OWNERSTR":"132 MONROE ST","OWNERCITY":"DETROIT","OWNERSTATE":"MI","OWNERZIP":"48226-2809","PROPCLASS":"202","TAXSTATUS":"TAXABLE","SUBDIV":"MILITARY RESERVE (C R)","LEGALDES":"N LARNED W 12 THRU 14MILITARY RESERVE L5 P218 CITY RECORDS, W C R 2/58 140 X 120","lat":"42.32833566","long":"-83.04781154"},{"PARCELNO":"21071908","address":"5502 AUDUBON","PROPNO":"5502","PROPDIR":"","PROPSTR":"AUDUBON","PROPZIP":"48224","WARD":"21","owner":"Manuel Moroun","OWNERNAME2":"","OWN_TYPE":"spec","OWNERSTR":"14124 MERCI AVE","OWNERCITY":"STERLING HEIGHTS","OWNERSTATE":"MI","OWNERZIP":"48313-5887","PROPCLASS":"401","TAXSTATUS":"TAXABLE","SUBDIV":"A M CAMPAUS THREE MILE DR","LEGALDES":"E AUDUBON 174 A M CAMPAUS THREE MILE DR ADD SUB L46 P78 PLATS, WCR 21/698 36 X 143.88","lat":"42.40660735","long":"-82.94004286"},{"PARCELNO":"13021246","address":"20148 BINDER","PROPNO":"20148","PROPDIR":"","PROPSTR":"BINDER","PROPZIP":"48234","WARD":"13","owner":"Manuel Moroun","OWNERNAME2":"","OWN_TYPE":"spec","OWNERSTR":"14124 MERCI AVE","OWNERCITY":"STERLING HEIGHTS","OWNERSTATE":"MI","OWNERZIP":"48313-5587","PROPCLASS":"401","TAXSTATUS":"TAXABLE","SUBDIV":"MELIN SUB (PLATS)","LEGALDES":"E BINDER N 33 FT 77 S 9 FT 78 MELIN SUB L59 P70 PLATS, W C R 13/327 42 X 97.46A","lat":"42.44340166","long":"-83.06469293"},{"PARCELNO":"18010531-2","address":"3703 CICOTTE","PROPNO":"3703","PROPDIR":"","PROPSTR":"CICOTTE","PROPZIP":"","WARD":"18","owner":"Manuel Moroun","OWNERNAME2":"","OWN_TYPE":"spec","OWNERSTR":"7144 MICHIGAN AVE","OWNERCITY":"DETROIT","OWNERSTATE":"MI","OWNERZIP":"48210","PROPCLASS":"401","TAXSTATUS":"TAXABLE","SUBDIV":"","LEGALDES":"W CICOTTE 164 & 163 CICOTTE GILBERT & BARKUMES SUB L3 P19 PLATS, W C R 18/211 72 X 147 COMBINED 18010531 & 18010532 ON 10/7/03","lat":"42.32772027","long":"-83.12124748"},{"PARCELNO":"18002405","address":"7138 MICHIGAN AVE","PROPNO":"7138","PROPDIR":"","PROPSTR":"MICHIGAN AVE","PROPZIP":"48210","WARD":"18","owner":"Manuel Moroun","OWNERNAME2":"","OWN_TYPE":"spec","OWNERSTR":"7144 MICHIGAN AVE","OWNERCITY":"DETROIT","OWNERSTATE":"MI","OWNERZIP":"48210","PROPCLASS":"201","TAXSTATUS":"TAXABLE","SUBDIV":"BURTONS MICH AVE (PLATS)","LEGALDES":"N MICHIGAN 24&25 BURTONS MICH AVE SUB L29 P2 PLATS, W C R 18/347 40 X 100","lat":"42.33113641","long":"-83.13276166"},{"PARCELNO":"18002402","address":"7152 MICHIGAN AVE","PROPNO":"7152","PROPDIR":"","PROPSTR":"MICHIGAN AVE","PROPZIP":"48210","WARD":"18","owner":"Manuel Moroun","OWNERNAME2":"","OWN_TYPE":"spec","OWNERSTR":"7144 MICHIGAN AVE","OWNERCITY":"DETROIT","OWNERSTATE":"MI","OWNERZIP":"48210","PROPCLASS":"201","TAXSTATUS":"TAXABLE","SUBDIV":"BURTONS MICH AVE (PLATS)","LEGALDES":"N MICHIGAN 21 BURTONS MICH AVE SUB L29 P2 PLATS, W C R 18/347 20 X 100","lat":"42.33113641","long":"-83.1330204"},{"PARCELNO":"18002404","address":"7146 MICHIGAN AVE","PROPNO":"7146","PROPDIR":"","PROPSTR":"MICHIGAN AVE","PROPZIP":"48210","WARD":"18","owner":"Manuel Moroun","OWNERNAME2":"","OWN_TYPE":"spec","OWNERSTR":"7144 MICHIGAN AVE","OWNERCITY":"DETROIT","OWNERSTATE":"MI","OWNERZIP":"48210","PROPCLASS":"201","TAXSTATUS":"TAXABLE","SUBDIV":"BURTONS MICH AVE (PLATS)","LEGALDES":"N MICHIGAN 23 BURTONS MICH AVE SUB L29 P2 PLATS, W C R 18/347 20 X 100","lat":"42.33113641","long":"-83.13288054"},{"PARCELNO":"18002403","address":"7150 MICHIGAN AVE","PROPNO":"7150","PROPDIR":"","PROPSTR":"MICHIGAN AVE","PROPZIP":"48210","WARD":"18","owner":"Manuel Moroun","OWNERNAME2":"","OWN_TYPE":"spec","OWNERSTR":"7146 MICHIGAN AVE","OWNERCITY":"DETROIT","OWNERSTATE":"MI","OWNERZIP":"48210","PROPCLASS":"201","TAXSTATUS":"TAXABLE","SUBDIV":"BURTONS MICH AVE (PLATS)","LEGALDES":"N MICHIGAN 22 BURTONS MICH AVE SUB L29 P2 PLATS, W C R 18/347 20 X 100","lat":"42.33113641","long":"-83.13295047"},{"PARCELNO":"22004466-7","address":"15838 CHICAGO","PROPNO":"15838","PROPDIR":"","PROPSTR":"CHICAGO","PROPZIP":"48228","WARD":"22","owner":"Manuel Moroun","OWNERNAME2":"","OWN_TYPE":"spec","OWNERSTR":"18412 RYAN RD","OWNERCITY":"DETROIT","OWNERSTATE":"MI","OWNERZIP":"48234","PROPCLASS":"401","TAXSTATUS":"TAXABLE","SUBDIV":"FRISCHKORNS DYNAMIC (PLAT","LEGALDES":"N--W CHICAGO 3&4 FRISCHKORN DYNAMIC SUB L48 P66 PLATS, W C R 22/194 40 X 110","lat":"42.36533744","long":"-83.20169053"},{"PARCELNO":"22037380","address":"13371 MARK TWAIN","PROPNO":"13371","PROPDIR":"","PROPSTR":"MARK TWAIN","PROPZIP":"48227","WARD":"22","owner":"Manuel Moroun","OWNERNAME2":"","OWN_TYPE":"spec","OWNERSTR":"17311 MONICA","OWNERCITY":"DETROIT","OWNERSTATE":"MI","OWNERZIP":"48221","PROPCLASS":"401","TAXSTATUS":"TAXABLE","SUBDIV":"SCHOOLCRAFT SUB NO 2","LEGALDES":"W MARK TWAIN 14 SCHOOLCRAFT SUB NO 2 L30 P90 PLATS, W C R 22/87 40 X 183.36A","lat":"42.38655807","long":"-83.1860982"},{"PARCELNO":"22059721","address":"9966 METTETAL","PROPNO":"9966","PROPDIR":"","PROPSTR":"METTETAL","PROPZIP":"48227","WARD":"22","owner":"Manuel Moroun","OWNERNAME2":"","OWN_TYPE":"spec","OWNERSTR":"17311 MONICA","OWNERCITY":"DETROIT","OWNERSTATE":"MI","OWNERZIP":"48221","PROPCLASS":"401","TAXSTATUS":"TAXABLE","SUBDIV":"FRISCHKORNS GRAND-DALE (P","LEGALDES":"E METTETAL 914 FRISCHKORNS GRAND-DALE SUB L50 P66 PLATS, W C R 22/196 35 X 124","lat":"42.36870113","long":"-83.20574305"},{"PARCELNO":"16025189","address":"3651 OAKMAN BLVD 203","PROPNO":"3651","PROPDIR":"","PROPSTR":"OAKMAN BLVD","PROPZIP":"","WARD":"16","owner":"Manuel Moroun","OWNERNAME2":"","OWN_TYPE":"spec","OWNERSTR":"PO BOX 27004","OWNERCITY":"DETROIT","OWNERSTATE":"MI","OWNERZIP":"48227-0004","PROPCLASS":"403","TAXSTATUS":"TAXABLE","SUBDIV":"WAYNE COUNTY CONDO PLAN #","LEGALDES":"E OAKMAN BLVD BLDG B APT 203WAYNE COUNTY CONDO SUB PLAN NO 2 L15737 P792-813 DEEDS, W C R 16/477 3.190%GRAND OAK CONDOMINIUM","lat":"42.37825606","long":"-83.14461267"},{"PARCELNO":"16025188","address":"3651 OAKMAN BLVD 103","PROPNO":"3651","PROPDIR":"","PROPSTR":"OAKMAN BLVD","PROPZIP":"","WARD":"16","owner":"Manuel Moroun","OWNERNAME2":"JAMES DAVIS ASLTON, PRESIDENT","OWN_TYPE":"spec","OWNERSTR":"PO BOX 27004","OWNERCITY":"DETROIT","OWNERSTATE":"MI","OWNERZIP":"48227-0004","PROPCLASS":"403","TAXSTATUS":"TAXABLE","SUBDIV":"WAYNE COUNTY CONDO PLAN #","LEGALDES":"E OAKMAN BLVD BLDG B APT 103WAYNE COUNTY CONDO SUB PLAN NO 2 L15737 P792-813 DEEDS, W C R 16/477 3.270%GRAND OAK CONDOMINIUM","lat":"42.37825606","long":"-83.14461267"},{"PARCELNO":"16025188.004L","address":"3651 OAKMAN BLVD 104","PROPNO":"3651","PROPDIR":"","PROPSTR":"OAKMAN BLVD","PROPZIP":"","WARD":"16","owner":"Manuel Moroun","OWNERNAME2":"JAMES DAVIS ALSTON, PRESIDENT","OWN_TYPE":"spec","OWNERSTR":"PO BOX 27004","OWNERCITY":"DETROIT","OWNERSTATE":"MI","OWNERZIP":"48227-0004","PROPCLASS":"403","TAXSTATUS":"TAXABLE","SUBDIV":"WAYNE COUNTY CONDO PLAN #","LEGALDES":"E OAKMAN BLVD BLDG B APT 104WAYNE COUNTY CONDO SUB PLAN NO 2 L15737 P792-813 DEEDS, W C R 16/477 3.560%GRAND OAK CONDOMINIUM","lat":"42.37825606","long":"-83.14461267"},{"PARCELNO":"16033563","address":"12081 CHERRYLAWN","PROPNO":"12081","PROPDIR":"","PROPSTR":"CHERRYLAWN","PROPZIP":"48204","WARD":"16","owner":"Manuel Moroun","OWNERNAME2":"JAMES DAVIS ALSTON, PRESIDENT","OWN_TYPE":"spec","OWNERSTR":"PO BOX 27004","OWNERCITY":"DETROIT","OWNERSTATE":"MI","OWNERZIP":"48227-0004","PROPCLASS":"401","TAXSTATUS":"TAXABLE","SUBDIV":"WESTLAWN SUB NO 2 (PLATS)","LEGALDES":"W CHERRYLAWN 11 WESTLAWN SUB NO 2 L32 P11 PLATS, W C R 16/235 35 X 92.97A","lat":"42.37708821","long":"-83.15377715"},{"PARCELNO":"22014725","address":"15809 CURTIS","PROPNO":"15809","PROPDIR":"","PROPSTR":"CURTIS","PROPZIP":"48235","WARD":"22","owner":"Manuel Moroun","OWNERNAME2":"","OWN_TYPE":"spec","OWNERSTR":"18650 W MCNICHOLS RD","OWNERCITY":"DETROIT","OWNERSTATE":"MI","OWNERZIP":"48219-4160","PROPCLASS":"401","TAXSTATUS":"TAXABLE","SUBDIV":"RUGBY BLVD SUB","LEGALDES":"S CURTIS 135 AND N 10 FT OF VAC ALLEY ADJ RUGBY BOULEVARD SUB L50 P56 PLATS, W C R 22/158 20 X 100","lat":"42.42307149","long":"-83.20278029"},{"PARCELNO":"9020086","address":"18911 HULL","PROPNO":"18911","PROPDIR":"","PROPSTR":"HULL","PROPZIP":"48203","WARD":"9","owner":"Manuel Moroun","OWNERNAME2":"","OWN_TYPE":"spec","OWNERSTR":"27674 144TH AVE","OWNERCITY":"KENT","OWNERSTATE":"WA","OWNERZIP":"98042","PROPCLASS":"401","TAXSTATUS":"TAXABLE","SUBDIV":"CADILLAC HEIGHTS SUB OF N","LEGALDES":"W HULL 470 CADILLAC HEIGHTS SUB OF NE 1/4 SEC 12 L33 P81 PLATS, W C R 9/163 35 X 120","lat":"42.43181755","long":"-83.08898821"},{"PARCELNO":"16037145","address":"13579 KENTUCKY","PROPNO":"13579","PROPDIR":"","PROPSTR":"KENTUCKY","PROPZIP":"48238","WARD":"16","owner":"Manuel Moroun","OWNERNAME2":"","OWN_TYPE":"spec","OWNERSTR":"27674 144TH AVE","OWNERCITY":"KENT","OWNERSTATE":"WA","OWNERZIP":"98042","PROPCLASS":"401","TAXSTATUS":"TAXABLE","SUBDIV":"B E TAYLORS DETROIT CITY","LEGALDES":"W KENTUCKY 163 B E TAYLORS DETROIT CITY SUB NO 1 L39 P96 PLATS, WCR 16/272 35 X 100","lat":"42.38726787","long":"-83.15801732"},{"PARCELNO":"21010724","address":"14219 GLENFIELD","PROPNO":"14219","PROPDIR":"","PROPSTR":"GLENFIELD","PROPZIP":"48213","WARD":"21","owner":"Manuel Moroun","OWNERNAME2":"","OWN_TYPE":"spec","OWNERSTR":"27674 144TH ST","OWNERCITY":"KENT","OWNERSTATE":"WA","OWNERZIP":"98042","PROPCLASS":"401","TAXSTATUS":"TAXABLE","SUBDIV":"GLENFIELD SUB OF LOT 2","LEGALDES":"N GLENFIELD 11 GLENFIELD SUB OF LOT 2 L44 P40 PLATS, W C R 21/661 35X106.2","lat":"42.4168954","long":"-82.97512036"},{"PARCELNO":"9017752","address":"17526 ORLEANS","PROPNO":"17526","PROPDIR":"","PROPSTR":"ORLEANS","PROPZIP":"48203","WARD":"9","owner":"Manuel Moroun","OWNERNAME2":"","OWN_TYPE":"spec","OWNERSTR":"18910 SAN JAUN DR","OWNERCITY":"DETROIT","OWNERSTATE":"MI","OWNERZIP":"48221","PROPCLASS":"401","TAXSTATUS":"TAXABLE","SUBDIV":"JEROME PARK (PLATS)","LEGALDES":"E ORLEANS 16 BLK 9 JEROME PK SUB L12 P52 PLATS, W C R 9/152 30 X 125","lat":"42.42236052","long":"-83.08481331"},{"PARCELNO":"16025655","address":"18910 SAN JUAN","PROPNO":"18910","PROPDIR":"","PROPSTR":"SAN JUAN","PROPZIP":"48221","WARD":"16","owner":"Manuel Moroun","OWNERNAME2":"","OWN_TYPE":"spec","OWNERSTR":"18910 SAN JUAN DR","OWNERCITY":"DETROIT","OWNERSTATE":"MI","OWNERZIP":"48221-2176","PROPCLASS":"401","TAXSTATUS":"TAXABLE","SUBDIV":"A W CHASE LINCOLN HIGHWAY","LEGALDES":"E SAN JUAN DR 253 A W CHASE LINCOLN HWY SUB L37 P81 PLATS, W C R 16/296 35 X 120","lat":"42.42992125","long":"-83.14682366"},{"PARCELNO":"19004474","address":"5094 HURLBUT","PROPNO":"5094","PROPDIR":"","PROPSTR":"HURLBUT","PROPZIP":"48213","WARD":"19","owner":"Manuel Moroun","OWNERNAME2":"","OWN_TYPE":"spec","OWNERSTR":"15711 ASHTON","OWNERCITY":"DETROIT","OWNERSTATE":"MI","OWNERZIP":"48223","PROPCLASS":"401","TAXSTATUS":"TAXABLE","SUBDIV":"GOETZ GARDEN SPOT","LEGALDES":"E HURLBUT 5 GOETZ GARDEN SPOT SUB L37 P29 PLATS, W C R 19/426 30 X 136.92A","lat":"42.38399742","long":"-82.99640276"},{"PARCELNO":"19004636","address":"5715 HURLBUT","PROPNO":"5715","PROPDIR":"","PROPSTR":"HURLBUT","PROPZIP":"48213","WARD":"19","owner":"Manuel Moroun","OWNERNAME2":"","OWN_TYPE":"spec","OWNERSTR":"15711 ASHTON","OWNERCITY":"DETROIT","OWNERSTATE":"MI","OWNERZIP":"48223","PROPCLASS":"401","TAXSTATUS":"TAXABLE","SUBDIV":"BESSENGER & MOORE CADILLA","LEGALDES":"W HURLBUT 38 BESSENGER & MOORES CADILLAC AVE SUB L27 P47 PLATS, W C R 19/148 30 X 127","lat":"42.38813152","long":"-82.99926761"},{"PARCELNO":"22043021","address":"14940 TERRY","PROPNO":"14940","PROPDIR":"","PROPSTR":"TERRY","PROPZIP":"48227","WARD":"22","owner":"Manuel Moroun","OWNERNAME2":"","OWN_TYPE":"spec","OWNERSTR":"15711 ASHTON","OWNERCITY":"DETROIT","OWNERSTATE":"MI","OWNERZIP":"48223","PROPCLASS":"401","TAXSTATUS":"TAXABLE","SUBDIV":"B E TAYLORS HOLLYWOOD SUB","LEGALDES":"E TERRY 158 B E TAYLORS HOLLYWOOD SUB L41 P3 PLATS, W C R 22/99 42 X 100","lat":"42.39890093","long":"-83.191723"},{"PARCELNO":"19004473","address":"5088 HURLBUT","PROPNO":"5088","PROPDIR":"","PROPSTR":"HURLBUT","PROPZIP":"48213","WARD":"19","owner":"Manuel Moroun","OWNERNAME2":"","OWN_TYPE":"spec","OWNERSTR":"P O BOX 7184","OWNERCITY":"DEARBORN","OWNERSTATE":"MI","OWNERZIP":"48121","PROPCLASS":"401","TAXSTATUS":"TAXABLE","SUBDIV":"GOETZ GARDEN SPOT","LEGALDES":"E HURLBUT 6 GOETZ GARDEN SPOT SUB L37 P29 PLATS, W C R 19/426 30 X 136.87A","lat":"42.38392749","long":"-82.99636314"},{"PARCELNO":"19004472","address":"5082 HURLBUT","PROPNO":"5082","PROPDIR":"","PROPSTR":"HURLBUT","PROPZIP":"48213","WARD":"19","owner":"Manuel Moroun","OWNERNAME2":"","OWN_TYPE":"spec","OWNERSTR":"P O BOX 7184","OWNERCITY":"DEARBORN","OWNERSTATE":"MI","OWNERZIP":"48121","PROPCLASS":"401","TAXSTATUS":"TAXABLE","SUBDIV":"GOETZ GARDEN SPOT","LEGALDES":"E HURLBUT 7 GOETZ GARDEN SPOT SUB L37 P29 PLATS, W C R 19/426 30 X 136.82A","lat":"42.38384823","long":"-82.99630253"},{"PARCELNO":"9021344","address":"18859 CARDONI","PROPNO":"18859","PROPDIR":"","PROPSTR":"CARDONI","PROPZIP":"48203","WARD":"9","owner":"Manuel Moroun","OWNERNAME2":"","OWN_TYPE":"spec","OWNERSTR":"P O BOX 7184","OWNERCITY":"DEARBORN","OWNERSTATE":"MI","OWNERZIP":"48121","PROPCLASS":"401","TAXSTATUS":"TAXABLE","SUBDIV":"CADILLAC HEIGHTS SUB OF N","LEGALDES":"W CARDONI 143 CADILLAC HEIGHTS SUB L33 P81 PLATS, W C R 9/163 30 X 122.87A","lat":"42.43103782","long":"-83.09140783"},{"PARCELNO":"19008890","address":"1780 HIBBARD","PROPNO":"1780","PROPDIR":"","PROPSTR":"HIBBARD","PROPZIP":"48214","WARD":"19","owner":"Manuel Moroun","OWNERNAME2":"","OWN_TYPE":"spec","OWNERSTR":"P O BOX 7184","OWNERCITY":"DEARBORN","OWNERSTATE":"MI","OWNERZIP":"48121","PROPCLASS":"401","TAXSTATUS":"TAXABLE","SUBDIV":"HIBBARD BAKERS (PLATS)","LEGALDES":"E HIBBARD 24 HIBBARD BAKERS SUB L7 P86 PLATS, W C R 19/23 30 X 113.54","lat":"42.36135835","long":"-82.99018355"},{"PARCELNO":"19004635","address":"5721 HURLBUT","PROPNO":"5721","PROPDIR":"","PROPSTR":"HURLBUT","PROPZIP":"48213","WARD":"19","owner":"Manuel Moroun","OWNERNAME2":"","OWN_TYPE":"spec","OWNERSTR":"P O BOX 7184","OWNERCITY":"DEARBORN","OWNERSTATE":"MI","OWNERZIP":"48121","PROPCLASS":"401","TAXSTATUS":"TAXABLE","SUBDIV":"BESSENGER & MOORE CADILLA","LEGALDES":"W HURLBUT 39 BESSENGER & MOORES CADILLAC AVE SUB L27 P47 PLATS, W C R 19/148 30 X 127","lat":"42.38821077","long":"-82.99931773"},{"PARCELNO":"22110377-8","address":"12630 BENTLER","PROPNO":"12630","PROPDIR":"","PROPSTR":"BENTLER","PROPZIP":"48223","WARD":"22","owner":"Manuel Moroun","OWNERNAME2":"","OWN_TYPE":"spec","OWNERSTR":"P O BOX 7184","OWNERCITY":"DEARBORN","OWNERSTATE":"MI","OWNERZIP":"48121","PROPCLASS":"401","TAXSTATUS":"TAXABLE","SUBDIV":"B E TAYLORS BRIGHTMOOR-GA","LEGALDES":"E BENTLER 478&479 & W 8 FT OF VAC ALLEY ADJ B E TAYLORS BRIGHTMOOR-GARDNER SUB L47 P64-5 PLATS, W C R 22/516 68 X 116","lat":"42.37974094","long":"-83.25092328"},{"PARCELNO":"8002648","address":"1668 TAYLOR","PROPNO":"1668","PROPDIR":"","PROPSTR":"TAYLOR","PROPZIP":"48206","WARD":"8","owner":"Manuel Moroun","OWNERNAME2":"","OWN_TYPE":"spec","OWNERSTR":"18910 SAN JUAN","OWNERCITY":"DETROIT","OWNERSTATE":"MI","OWNERZIP":"48221","PROPCLASS":"401","TAXSTATUS":"TAXABLE","SUBDIV":"STOTTS SUB","LEGALDES":"N TAYLOR 85 STOTTS SUB L30 P61 PLATS, W C R 8/117 30 X 126","lat":"42.3762164","long":"-83.09734033"},{"PARCELNO":"8001519.002","address":"1619 MARQUETTE","PROPNO":"1619","PROPDIR":"","PROPSTR":"MARQUETTE","PROPZIP":"48208","WARD":"8","owner":"Manuel Moroun","OWNERNAME2":"","OWN_TYPE":"spec","OWNERSTR":"24359 CONNECTICUT DR","OWNERCITY":"SOUTHFIELD","OWNERSTATE":"MI","OWNERZIP":"48075","PROPCLASS":"401","TAXSTATUS":"TAXABLE","SUBDIV":"D.B.WOODBRIDGES SUB","LEGALDES":"S MARQUETTE 100-99 EXCEPT E 71 FT THEREOF D B WOODBRIDGES SUB L11 P7 PLATS, W C R 8/90 28.27 IRREG","lat":"42.3613432","long":"-83.08581216"},{"PARCELNO":"8007084","address":"6068 AVERY","PROPNO":"6068","PROPDIR":"","PROPSTR":"AVERY","PROPZIP":"48208","WARD":"8","owner":"Manuel Moroun","OWNERNAME2":"","OWN_TYPE":"spec","OWNERSTR":"24359 CONNECTICUT DR","OWNERCITY":"SOUTHFIELD","OWNERSTATE":"MI","OWNERZIP":"48075","PROPCLASS":"401","TAXSTATUS":"TAXABLE","SUBDIV":"HAMLIN & FORDYCES SUB (PL","LEGALDES":"E AVERY 3 BLK F HAMLIN & FORDYCES SUB L16 P10 PLATS, W C R 8/76 30 X 136","lat":"42.3608362","long":"-83.08644154"},{"PARCELNO":"10002337","address":"2474 TAYLOR","PROPNO":"2474","PROPDIR":"","PROPSTR":"TAYLOR","PROPZIP":"48206","WARD":"10","owner":"Manuel Moroun","OWNERNAME2":"","OWN_TYPE":"spec","OWNERSTR":"24359 CONNECTICUT DR","OWNERCITY":"SOUTHFIELD","OWNERSTATE":"MI","OWNERZIP":"48075","PROPCLASS":"401","TAXSTATUS":"TAXABLE","SUBDIV":"JOY FARM (ALSO P39 PLATS)","LEGALDES":"N TAYLOR 160 JOY FARM SUB L32 P39-40 PLATS, W C R 10/99 35 X 120.50","lat":"42.37280609","long":"-83.10647101"},{"PARCELNO":"8007085","address":"1633 MARQUETTE","PROPNO":"1633","PROPDIR":"","PROPSTR":"MARQUETTE","PROPZIP":"48208","WARD":"8","owner":"Manuel Moroun","OWNERNAME2":"10898800664","OWN_TYPE":"spec","OWNERSTR":"24359 CONNECTICUT DR","OWNERCITY":"SOUTHFIELD","OWNERSTATE":"MI","OWNERZIP":"48075-2501","PROPCLASS":"201","TAXSTATUS":"TAXABLE","SUBDIV":"HAMLIN & FORDYCES SUB (PL","LEGALDES":"E AVERY 2&1 BLK F HAMLIN & FORDYCES SUB L16 P10 PLATS, W C R 8/76 60 X 136","lat":"42.36119285","long":"-83.08628187"},{"PARCELNO":"10002285","address":"2495 TAYLOR","PROPNO":"2495","PROPDIR":"","PROPSTR":"TAYLOR","PROPZIP":"48206","WARD":"10","owner":"Manuel Moroun","OWNERNAME2":"","OWN_TYPE":"spec","OWNERSTR":"24359 CONNECTICUT DR","OWNERCITY":"SOUTHFIELD","OWNERSTATE":"MI","OWNERZIP":"48075-2501","PROPCLASS":"401","TAXSTATUS":"TAXABLE","SUBDIV":"JOY FARM (ALSO P39 PLATS)","LEGALDES":"S TAYLOR 138 JOY FARM SUB L32 P39-40 PLATS, W C R 10/99 35 X 127","lat":"42.37263359","long":"-83.10675074"},{"PARCELNO":"8007086","address":"6100 AVERY","PROPNO":"6100","PROPDIR":"","PROPSTR":"AVERY","PROPZIP":"48208","WARD":"8","owner":"Manuel Moroun","OWNERNAME2":"","OWN_TYPE":"spec","OWNERSTR":"24359 CONNETICUT DR","OWNERCITY":"SOUTHFIELD","OWNERSTATE":"MI","OWNERZIP":"48075","PROPCLASS":"401","TAXSTATUS":"TAXABLE","SUBDIV":"MORE THAN ONE SUBDIVISION","LEGALDES":"E AVERY 90 THRU 88 E I & A K STIMSONS SUB L10 P31 PLATS, W C R 8/75 LOT A, HAMLIN & FORDYCES SUB L16 P10 PLATS, W C R 8/76 104.96 X 136","lat":"42.36131639","long":"-83.08672127"},{"PARCELNO":"9008794","address":"13569 CONANT","PROPNO":"13569","PROPDIR":"","PROPSTR":"CONANT","PROPZIP":"48212","WARD":"9","owner":"Manuel Moroun","OWNERNAME2":"","OWN_TYPE":"spec","OWNERSTR":"4182 OLIVER ST","OWNERCITY":"DETROIT","OWNERSTATE":"MI","OWNERZIP":"48211-1590","PROPCLASS":"201","TAXSTATUS":"TAXABLE","SUBDIV":"JOHN M DWYERS CONANT AVE","LEGALDES":"W CONANT 8 BLK 5 JOHN M DWYERS CONANT AVE SUB L15 P47 PLATS, W C R 9/149 30 X 100","lat":"42.41720076","long":"-83.06263812"},{"PARCELNO":"9008795","address":"13561 CONANT","PROPNO":"13561","PROPDIR":"","PROPSTR":"CONANT","PROPZIP":"48212","WARD":"9","owner":"Manuel Moroun","OWNERNAME2":"","OWN_TYPE":"spec","OWNERSTR":"4182 OLIVER ST","OWNERCITY":"DETROIT","OWNERSTATE":"MI","OWNERZIP":"48211-1590","PROPCLASS":"201","TAXSTATUS":"TAXABLE","SUBDIV":"JOHN M DWYERS CONANT AVE","LEGALDES":"W CONANT 9 BLK 5 JOHN M DWYERS CONANT AVE SUB L15 P47 PLATS, W C R 9/149 30 X 100","lat":"42.41713083","long":"-83.062588"},{"PARCELNO":"9008796","address":"13557 CONANT","PROPNO":"13557","PROPDIR":"","PROPSTR":"CONANT","PROPZIP":"48212","WARD":"9","owner":"Manuel Moroun","OWNERNAME2":"","OWN_TYPE":"spec","OWNERSTR":"4182 OLIVER ST","OWNERCITY":"DETROIT","OWNERSTATE":"MI","OWNERZIP":"48211-1590","PROPCLASS":"201","TAXSTATUS":"TAXABLE","SUBDIV":"JOHN M DWYERS CONANT AVE","LEGALDES":"W CONANT 10 BLK 5 JOHN M DWYERS CONANT AVE SUB L15 P47 PLATS, W C R 9/149 30 X 100","lat":"42.4170609","long":"-83.06253789"},{"PARCELNO":"13004679","address":"4182 OLIVER","PROPNO":"4182","PROPDIR":"","PROPSTR":"OLIVER","PROPZIP":"48211","WARD":"13","owner":"Manuel Moroun","OWNERNAME2":"","OWN_TYPE":"spec","OWNERSTR":"4182 OLIVER ST","OWNERCITY":"DETROIT","OWNERSTATE":"MI","OWNERZIP":"48211-1590","PROPCLASS":"401","TAXSTATUS":"TAXABLE","SUBDIV":"KRAUSES (PLATS)","LEGALDES":"S OLIVER 79 KRAUSES SUB L26 P32 PLATS, WCR 13/206 30 X 132.53","lat":"42.39210245","long":"-83.0382904"},{"PARCELNO":"13004680","address":"4178 OLIVER","PROPNO":"4178","PROPDIR":"","PROPSTR":"OLIVER","PROPZIP":"48211","WARD":"13","owner":"Manuel Moroun","OWNERNAME2":"","OWN_TYPE":"spec","OWNERSTR":"4182 OLIVER ST","OWNERCITY":"DETROIT","OWNERSTATE":"MI","OWNERZIP":"48211-1590","PROPCLASS":"401","TAXSTATUS":"TAXABLE","SUBDIV":"KRAUSES (PLATS)","LEGALDES":"S OLIVER 78 KRAUSES SUB L26 P32 PLATS, WCR 13/206 30 X 132.53","lat":"42.39210245","long":"-83.03841045"},{"PARCELNO":"22090310-11","address":"6543 WESTWOOD","PROPNO":"6543","PROPDIR":"","PROPSTR":"WESTWOOD","PROPZIP":"48228","WARD":"22","owner":"Manuel Moroun","OWNERNAME2":"","OWN_TYPE":"spec","OWNERSTR":"6715 GREENVIEW AVE","OWNERCITY":"DETROIT","OWNERSTATE":"MI","OWNERZIP":"48228","PROPCLASS":"401","TAXSTATUS":"TAXABLE","SUBDIV":"FRISCHKORNS ESTATES (PLAT","LEGALDES":"W WESTWOOD 562&563 FRISCHKORNS ESTATES SUB L42 P93 PLATS, W C R 22/275 70 X 124","lat":"42.3393778","long":"-83.23035767"},{"PARCELNO":"22069069","address":"7771 RUTLAND","PROPNO":"7771","PROPDIR":"","PROPSTR":"RUTLAND","PROPZIP":"48228","WARD":"22","owner":"Manuel Moroun","OWNERNAME2":"","OWN_TYPE":"spec","OWNERSTR":"6715 GREENVIEW AVE","OWNERCITY":"DETROIT","OWNERSTATE":"MI","OWNERZIP":"48228-3434","PROPCLASS":"401","TAXSTATUS":"TAXABLE","SUBDIV":"WEST HAVEN NO 1 (PLATS)","LEGALDES":"W RUTLAND 738 AND E 9 FT OF VAC ALLEY ADJ WEST HAVEN NO 1 SUB L43 P37 PLATS, W C R 22/251 40 X 120.95A","lat":"42.34913903","long":"-83.21279794"},{"PARCELNO":"22056887","address":"6440 MANSFIELD","PROPNO":"6440","PROPDIR":"","PROPSTR":"MANSFIELD","PROPZIP":"48228","WARD":"22","owner":"Manuel Moroun","OWNERNAME2":"","OWN_TYPE":"spec","OWNERSTR":"6715 GREENVIEW AVE","OWNERCITY":"DETROIT","OWNERSTATE":"MI","OWNERZIP":"48228","PROPCLASS":"401","TAXSTATUS":"TAXABLE","SUBDIV":"HITCHMANS WARREN GARDENS","LEGALDES":"E MANSFIELD 51 AND W 9 FT OF VAC ALLEY ADJ HITCHMANS WARREN GARDENS SUB L40 P81 PLATS, W C R 22/255 40 X 143","lat":"42.33837079","long":"-83.20210312"},{"PARCELNO":"22058091","address":"7459 MANSFIELD","PROPNO":"7459","PROPDIR":"","PROPSTR":"MANSFIELD","PROPZIP":"48228","WARD":"22","owner":"Manuel Moroun","OWNERNAME2":"","OWN_TYPE":"spec","OWNERSTR":"6715 GREENVIEW AVE","OWNERCITY":"DETROIT","OWNERSTATE":"MI","OWNERZIP":"48228","PROPCLASS":"401","TAXSTATUS":"TAXABLE","SUBDIV":"FRISCHKORNS WARREN AVE GA","LEGALDES":"W MANSFIELD 102 FRISCHKORNS WARREN AVE GDNS SUB L39 P100 PLATS, W C R 22/246 35 X 134","lat":"42.34685694","long":"-83.20252737"},{"PARCELNO":"22085507","address":"7335 ARTESIAN","PROPNO":"7335","PROPDIR":"","PROPSTR":"ARTESIAN","PROPZIP":"48228","WARD":"22","owner":"Manuel Moroun","OWNERNAME2":"","OWN_TYPE":"spec","OWNERSTR":"6715 GREENVIEW AVE","OWNERCITY":"DETROIT","OWNERSTATE":"MI","OWNERZIP":"48228","PROPCLASS":"401","TAXSTATUS":"TAXABLE","SUBDIV":"WARRENDALE (PLATS)","LEGALDES":"W ARTESIAN 83 AND E 9' VAC ALLEY ADJ WARRENDALE SUB L43 P38 PLATS, W C R 22/264 40 X 137","lat":"42.34522755","long":"-83.22573755"},{"PARCELNO":"22088019","address":"6344 GRANDVILLE","PROPNO":"6344","PROPDIR":"","PROPSTR":"GRANDVILLE","PROPZIP":"48228","WARD":"22","owner":"Manuel Moroun","OWNERNAME2":"","OWN_TYPE":"spec","OWNERSTR":"6715 GREENVIEW AVE","OWNERCITY":"DETROIT","OWNERSTATE":"MI","OWNERZIP":"48228","PROPCLASS":"401","TAXSTATUS":"TAXABLE","SUBDIV":"FRISCHKORNS ESTATES (PLAT","LEGALDES":"E GRANDVILLE 753 FRISCHKORNS ESTATES SUB L42 P93 PLATS, W C R 22/275 35 X 122","lat":"42.33666097","long":"-83.22900334"},{"PARCELNO":"22090250-1","address":"7415 WESTWOOD","PROPNO":"7415","PROPDIR":"","PROPSTR":"WESTWOOD","PROPZIP":"48228","WARD":"22","owner":"Manuel Moroun","OWNERNAME2":"","OWN_TYPE":"spec","OWNERSTR":"6715 GREENVIEW AVE","OWNERCITY":"DETROIT","OWNERSTATE":"MI","OWNERZIP":"48228","PROPCLASS":"401","TAXSTATUS":"TAXABLE","SUBDIV":"SLOANS MILTON AVE","LEGALDES":"W WESTWOOD 42 N 10 FT 43 SLOANS MILTON AVE SUB L51 P10 PLATS, W C R 22/265 45 X 121.42","lat":"42.34627768","long":"-83.23065721"},{"PARCELNO":"22092957","address":"7355 AUBURN","PROPNO":"7355","PROPDIR":"","PROPSTR":"AUBURN","PROPZIP":"48228","WARD":"22","owner":"Manuel Moroun","OWNERNAME2":"","OWN_TYPE":"spec","OWNERSTR":"6715 GREENVIEW AVE","OWNERCITY":"DETROIT","OWNERSTATE":"MI","OWNERZIP":"48228","PROPCLASS":"401","TAXSTATUS":"TAXABLE","SUBDIV":"SLOANS-WALSH WEST WARREN","LEGALDES":"W AUBURN 288 SLOAN WALSH WEST WARREN SUB L41 P56 PLATS, W C R 22/266 35 X 124","lat":"42.34538839","long":"-83.23304769"},{"PARCELNO":"9011338","address":"13980 JOSEPH CAMPAU","PROPNO":"13980","PROPDIR":"","PROPSTR":"JOSEPH CAMPAU","PROPZIP":"48212","WARD":"9","owner":"Manuel Moroun","OWNERNAME2":"","OWN_TYPE":"spec","OWNERSTR":"17130 MCDOUGALL ST","OWNERCITY":"DETROIT","OWNERSTATE":"MI","OWNERZIP":"48212-1548","PROPCLASS":"401","TAXSTATUS":"TAXABLE","SUBDIV":"LIBERTY SUB","LEGALDES":"E JOS CAMPAU 140 EXC JOS CAMPAU AS WD LIBERTY SUB L29 P68 PLATS, W C R 9/144 30 X 82","lat":"42.41744785","long":"-83.07175366"},{"PARCELNO":"9011337","address":"13972 JOSEPH CAMPAU","PROPNO":"13972","PROPDIR":"","PROPSTR":"JOSEPH CAMPAU","PROPZIP":"48212","WARD":"9","owner":"Manuel Moroun","OWNERNAME2":"","OWN_TYPE":"spec","OWNERSTR":"17130 MCDOUGALL ST","OWNERCITY":"DETROIT","OWNERSTATE":"MI","OWNERZIP":"48212-1548","PROPCLASS":"201","TAXSTATUS":"TAXABLE","SUBDIV":"LIBERTY SUB","LEGALDES":"E JOS CAMPAU 139 EXC JOS CAMPAU AS WD LIBERTY SUB L29 P68 PLATS, W C R 9/144 30 X 82","lat":"42.41736743","long":"-83.07170354"},{"PARCELNO":"16015103","address":"2234 CAVALRY","PROPNO":"2234","PROPDIR":"","PROPSTR":"CAVALRY","PROPZIP":"48209","WARD":"16","owner":"Manuel Moroun","OWNERNAME2":"","OWN_TYPE":"spec","OWNERSTR":"6025 TOLEDO ST","OWNERCITY":"DETROIT","OWNERSTATE":"MI","OWNERZIP":"48209-1327","PROPCLASS":"401","TAXSTATUS":"TAXABLE","SUBDIV":"WALTER CRANE FARM (PLATS)","LEGALDES":"E CAVALRY N 25 FT OF S 50 FT OF W 20 FT 1184 N 25 FT OF S 50 FT 1185 N 25 FT OF S 50 FT OF E 21.10 FT 1186 SUB OF WALTER CRANE FARM L5 P29 PLATS, W C","lat":"42.31905812","long":"-83.10764469"},{"PARCELNO":"16015102","address":"2230 CAVALRY","PROPNO":"2230","PROPDIR":"","PROPSTR":"CAVALRY","PROPZIP":"48209","WARD":"16","owner":"Manuel Moroun","OWNERNAME2":"","OWN_TYPE":"spec","OWNERSTR":"6025 TOLEDO ST","OWNERCITY":"DETROIT","OWNERSTATE":"MI","OWNERZIP":"48209-1327","PROPCLASS":"401","TAXSTATUS":"TAXABLE","SUBDIV":"WALTER CRANE FARM (PLATS)","LEGALDES":"E CAVALRY S 25 FT OF W 20 FT 1184 S 25 FT OF 1185 S 25 FT OF E 21.10 FT 1186 SUB OF WALTER CRANE FARM L5 P29 PLATS, W C R 16/9 25 X 66.39","lat":"42.31899868","long":"-83.1076039"},{"PARCELNO":"16001005","address":"6025 TOLEDO","PROPNO":"6025","PROPDIR":"","PROPSTR":"TOLEDO","PROPZIP":"48209","WARD":"16","owner":"Manuel Moroun","OWNERNAME2":"","OWN_TYPE":"spec","OWNERSTR":"6025 TOLEDO ST","OWNERCITY":"DETROIT","OWNERSTATE":"MI","OWNERZIP":"48209-1327","PROPCLASS":"401","TAXSTATUS":"TAXABLE","SUBDIV":"SCOTTENS DANIEL RE-SUB PT","LEGALDES":"S TOLEDO W 40 FT 355 THRU 358 DANIEL SCOTTENS RESUB L3 P1 PLATS, W C R 16/43 40 X 120","lat":"42.3191432","long":"-83.10838013"},{"PARCELNO":"16001004","address":"6017 TOLEDO","PROPNO":"6017","PROPDIR":"","PROPSTR":"TOLEDO","PROPZIP":"48209","WARD":"16","owner":"Manuel Moroun","OWNERNAME2":"","OWN_TYPE":"spec","OWNERSTR":"6025 TOLEDO ST","OWNERCITY":"DETROIT","OWNERSTATE":"MI","OWNERZIP":"48209-1327","PROPCLASS":"401","TAXSTATUS":"TAXABLE","SUBDIV":"SCOTTENS DANIEL RE-SUB PT","LEGALDES":"S TOLEDO E 30 FT OF W 70 FT 355 THRU 358 DANIEL SCOTTENS RESUB L3 P1 PLATS, W C R 16/43 30 X 120","lat":"42.31918283","long":"-83.10826009"},{"PARCELNO":"16015649","address":"2338 HAMMOND","PROPNO":"2338","PROPDIR":"","PROPSTR":"HAMMOND","PROPZIP":"48209","WARD":"16","owner":"Manuel Moroun","OWNERNAME2":"","OWN_TYPE":"spec","OWNERSTR":"6025 TOLEDO ST","OWNERCITY":"DETROIT","OWNERSTATE":"MI","OWNERZIP":"48209","PROPCLASS":"401","TAXSTATUS":"TAXABLE","SUBDIV":"LEAVITTS SUB","LEGALDES":"E HAMMOND 151 LEAVITTS SUB L2 P29 PLATS, W C R 16/165 30 X 150","lat":"42.31979822","long":"-83.10891394"},{"PARCELNO":"15000118","address":"6351 E LAFAYETTE","PROPNO":"6351","PROPDIR":"E","PROPSTR":"LAFAYETTE","PROPZIP":"48207","WARD":"15","owner":"Manuel Moroun","OWNERNAME2":"","OWN_TYPE":"spec","OWNERSTR":"18608 MIDWAY AVE","OWNERCITY":"SOUTHFIELD","OWNERSTATE":"MI","OWNERZIP":"48075-4138","PROPCLASS":"201","TAXSTATUS":"TAXABLE","SUBDIV":"MELDRUM & BEAUFAIT FARMS","LEGALDES":"N LAFAYETTE E 1/2 101 E 1/2 102 S 5 FT OF E 1/2 103 SUB OF PT OF MELDRUM & BEAUFAIT FARM L1 P304 PLATS, W C R 15/10 70 IRREG","lat":"42.34739541","long":"-83.01108133"},{"PARCELNO":"15013114-5","address":"2400 BELLEVUE","PROPNO":"2400","PROPDIR":"","PROPSTR":"BELLEVUE","PROPZIP":"48207","WARD":"15","owner":"Manuel Moroun","OWNERNAME2":"","OWN_TYPE":"spec","OWNERSTR":"18608 MIDWAY AVE","OWNERCITY":"SOUTHFIELD","OWNERSTATE":"MI","OWNERZIP":"48075-4138","PROPCLASS":"301","TAXSTATUS":"TAXABLE","SUBDIV":"HOPSONS SUB","LEGALDES":"E BELLEVUE N 56.50 FT 86 S 20 FT 87 EXCEPT ALLEY AS OPENED HOPSONS SUB L1 P235 PLATS, W C R 15/14 76.50 X 153.27","lat":"42.35624754","long":"-83.01339256"},{"PARCELNO":"15000105-8","address":"6550 E LAFAYETTE","PROPNO":"6550","PROPDIR":"E","PROPSTR":"LAFAYETTE","PROPZIP":"48207","WARD":"15","owner":"Manuel Moroun","OWNERNAME2":"","OWN_TYPE":"spec","OWNERSTR":"18608 MIDWAY AVE","OWNERCITY":"SOUTHFIELD","OWNERSTATE":"MI","OWNERZIP":"48075-4138","PROPCLASS":"301","TAXSTATUS":"TAXABLE","SUBDIV":"MORE THAN ONE SUBDIVISION","LEGALDES":"S LAFAYETTE 1 THRU 4 COONEYS SUB L23 P10 PLATS, W C R 15/23 21 DESNOYERS L1 P221 PLATS, WCR 15/13 23,533 SQ FT","lat":"42.34834298","long":"-83.00870949"},{"PARCELNO":"15011800","address":"537 CONCORD","PROPNO":"537","PROPDIR":"","PROPSTR":"CONCORD","PROPZIP":"48207","WARD":"15","owner":"Manuel Moroun","OWNERNAME2":"","OWN_TYPE":"spec","OWNERSTR":"6550 E LAFAYETTE","OWNERCITY":"DETROIT","OWNERSTATE":"MI","OWNERZIP":"48207","PROPCLASS":"401","TAXSTATUS":"TAXABLE","SUBDIV":"FRANCES E RUSSELS SUB","LEGALDES":"W CONCORD 5 FRANCES E RUSSELLS SUB L5 P16 PLATS, W C R 15/129 30 X 153.27","lat":"42.34771127","long":"-83.00620829"},{"PARCELNO":"15013041-2","address":"552 BELLEVUE","PROPNO":"552","PROPDIR":"","PROPSTR":"BELLEVUE","PROPZIP":"48207","WARD":"15","owner":"Manuel Moroun","OWNERNAME2":"","OWN_TYPE":"spec","OWNERSTR":"6550 E LAFAYETTE","OWNERCITY":"DETROIT","OWNERSTATE":"MI","OWNERZIP":"48207","PROPCLASS":"401","TAXSTATUS":"TAXABLE","SUBDIV":"HOPSONS SUB","LEGALDES":"E BELLEVUE 16 S 20 FT 17 HOPSONS SUB L1 P235 PLATS, W C R 15/14 50 X 153.27","lat":"42.34739775","long":"-83.00754281"},{"PARCELNO":"15000117","address":"6339 E LAFAYETTE","PROPNO":"6339","PROPDIR":"E","PROPSTR":"LAFAYETTE","PROPZIP":"48207","WARD":"15","owner":"Manuel Moroun","OWNERNAME2":"","OWN_TYPE":"spec","OWNERSTR":"6550 E LAFAYETTE","OWNERCITY":"DETROIT","OWNERSTATE":"MI","OWNERZIP":"48207-3464","PROPCLASS":"401","TAXSTATUS":"TAXABLE","SUBDIV":"MELDRUM & BEAUFAIT FARMS","LEGALDES":"N LAFAYETTE W 1/2 101 W 1/2 102 W 1/2 103 SUB OF PT OF MELDRUM & BEAUFAIT FARMS L1 P304 PLATS, W C R 15/10 70 IRREG","lat":"42.34729518","long":"-83.0113121"},{"PARCELNO":"17006625","address":"2921 BURNS","PROPNO":"2921","PROPDIR":"","PROPSTR":"BURNS","PROPZIP":"48214","WARD":"17","owner":"Manuel Moroun","OWNERNAME2":"","OWN_TYPE":"spec","OWNERSTR":"2921 BURNS","OWNERCITY":"DETROIT","OWNERSTATE":"MI","OWNERZIP":"48214","PROPCLASS":"402","TAXSTATUS":"TAXABLE","SUBDIV":"ASSESSORS PLAT OF PT OF P","LEGALDES":"W BURNS 27 & 20 FT OF VAC ALLEY ADJ ASSESSORS PLAT OF PT OF PCS 27 AND 180 L66 P56 PLATS, W C R 17/547 67 X 191.50 NEZ HOMESTEAD CERT#NH2009-0821, REL","lat":"42.36538056","long":"-82.9977268"},{"PARCELNO":"10007131","address":"2508 W LAFAYETTE 40","PROPNO":"2508","PROPDIR":"W","PROPSTR":"LAFAYETTE","PROPZIP":"","WARD":"10","owner":"Manuel Moroun","OWNERNAME2":"","OWN_TYPE":"spec","OWNERSTR":"2921 BURNS","OWNERCITY":"DETROIT","OWNERSTATE":"MI","OWNERZIP":"48214","PROPCLASS":"403","TAXSTATUS":"TAXABLE","SUBDIV":"","LEGALDES":"W 17TH UNIT 40 WAYNE COUNTY CONDOMINIUM SUB PLAN NO. 717 inRICHARD ROWHOUSESin MASTER DEED RECORDED L38840 P73 PLATS, W C R 1,024 SQ FT","lat":"42.32062574","long":"-83.07453925"},{"PARCELNO":"17000011.15","address":"8200 E JEFFERSON 151","PROPNO":"8200","PROPDIR":"E","PROPSTR":"JEFFERSON","PROPZIP":"","WARD":"17","owner":"Manuel Moroun","OWNERNAME2":"","OWN_TYPE":"spec","OWNERSTR":"2921 BURNS","OWNERCITY":"DETROIT","OWNERSTATE":"MI","OWNERZIP":"48214","PROPCLASS":"403","TAXSTATUS":"TAXABLE","SUBDIV":"WAYNE COUNTY CONDO PLAN #","LEGALDES":"S JEFFERSON E APT 151WAYNE COUNTY CONDOMINIUM SUB PLAN NO 157 AKA SHORELINE EAST CONDO L20863 PG'S 455-83 DEEDS, W C R 17/562 .60% NEZH CERT# 2008-003","lat":"42.35268455","long":"-82.99275469"},{"PARCELNO":"17006626","address":"2911 BURNS","PROPNO":"2911","PROPDIR":"","PROPSTR":"BURNS","PROPZIP":"48214","WARD":"17","owner":"Manuel Moroun","OWNERNAME2":"","OWN_TYPE":"spec","OWNERSTR":"2921 BURNS","OWNERCITY":"DETROIT","OWNERSTATE":"MI","OWNERZIP":"48214","PROPCLASS":"401","TAXSTATUS":"TAXABLE","SUBDIV":"ASSESSORS PLAT OF PT OF P","LEGALDES":"W BURNS 26 & 20 FT OF VAC ALLEY ADJ ASSESSORS PLAT OF PT OF PCS 27 AND 180 L66 P56 PLATS, W C R 17/547 70 X 191.50","lat":"42.36518009","long":"-82.99758693"},{"PARCELNO":"9010480","address":"17130 MCDOUGALL","PROPNO":"17130","PROPDIR":"","PROPSTR":"MCDOUGALL","PROPZIP":"48212","WARD":"9","owner":"Manuel Moroun","OWNERNAME2":"","OWN_TYPE":"spec","OWNERSTR":"17130 MCDOUGALL ST","OWNERCITY":"DETROIT","OWNERSTATE":"MI","OWNERZIP":"48212-1548","PROPCLASS":"401","TAXSTATUS":"TAXABLE","SUBDIV":"SUNNYSIDE (PLATS)","LEGALDES":"E MC DOUGALL 407 SUNNYSIDE SUB L18 P2 PLATS, WCR 9/146 30 X 100","lat":"42.41911804","long":"-83.0701534"},{"PARCELNO":"15013119","address":"2460 BELLEVUE","PROPNO":"2460","PROPDIR":"","PROPSTR":"BELLEVUE","PROPZIP":"48207","WARD":"15","owner":"Manuel Moroun","OWNERNAME2":"","OWN_TYPE":"spec","OWNERSTR":"18608 MIDWAY AVE","OWNERCITY":"SOUTHFIELD","OWNERSTATE":"MI","OWNERZIP":"48075","PROPCLASS":"301","TAXSTATUS":"TAXABLE","SUBDIV":"HOPSONS SUB","LEGALDES":"E BELLEVUE N 15 FT 89 S 45 FT 90 EXC ALLEY AS OP HOPSONS SUB L1 P235 PLATS, W C R 15/14 60 X 153.27","lat":"42.35692704","long":"-83.01383312"},{"PARCELNO":"15013116-8","address":"2424 BELLEVUE","PROPNO":"2424","PROPDIR":"","PROPSTR":"BELLEVUE","PROPZIP":"48207","WARD":"15","owner":"Manuel Moroun","OWNERNAME2":"","OWN_TYPE":"spec","OWNERSTR":"18608 MIDWAY AVE","OWNERCITY":"SOUTHFIELD","OWNERSTATE":"MI","OWNERZIP":"48075","PROPCLASS":"301","TAXSTATUS":"TAXABLE","SUBDIV":"HOPSONS SUB","LEGALDES":"E BELLEVUE N 60 FT 87 88 S 65 FT 89 EXC ALLEY AS OPENED HOPSONS SUB L1 P235 PLATS, W C R 15/14 205 X 153.27","lat":"42.3565972","long":"-83.01362216"},{"PARCELNO":"15013203","address":"4734 BELLEVUE","PROPNO":"4734","PROPDIR":"","PROPSTR":"BELLEVUE","PROPZIP":"48211","WARD":"15","owner":"Manuel Moroun","OWNERNAME2":"","OWN_TYPE":"spec","OWNERSTR":"18608 MIDWAY AVE","OWNERCITY":"SOUTHFIELD","OWNERSTATE":"MI","OWNERZIP":"48075-4138","PROPCLASS":"301","TAXSTATUS":"TAXABLE","SUBDIV":"HEFFRONS (PLATS)","LEGALDES":"E BELLEVUE 18 BLK 6 HEFFRONS SUB L2 P35 PLATS, W C R 15/59 30 X 135.20","lat":"42.37009479","long":"-83.02255794"},{"PARCELNO":"22026613","address":"11400 LITTLEFIELD","PROPNO":"11400","PROPDIR":"","PROPSTR":"LITTLEFIELD","PROPZIP":"48227","WARD":"22","owner":"Manuel Moroun","OWNERNAME2":"","OWN_TYPE":"spec","OWNERSTR":"493 MOORE ST","OWNERCITY":"PONTIAC","OWNERSTATE":"MI","OWNERZIP":"48342","PROPCLASS":"401","TAXSTATUS":"TAXABLE","SUBDIV":"BUCKINGHAM PARK (PLATS)","LEGALDES":"E LITTLEFIELD 260 BUCKINGHAM PARK SUB L34 P20 PLATS, W C R 22/572 40 X 125","lat":"42.37213125","long":"-83.17547332"},{"PARCELNO":"22041426-32","address":"12655 MARLOWE","PROPNO":"12655","PROPDIR":"","PROPSTR":"MARLOWE","PROPZIP":"48227","WARD":"22","owner":"Manuel Moroun","OWNERNAME2":"","OWN_TYPE":"spec","OWNERSTR":"493 MOORE ST","OWNERCITY":"PONTIAC","OWNERSTATE":"MI","OWNERZIP":"48342-1962","PROPCLASS":"401","TAXSTATUS":"TAXABLE","SUBDIV":"STRATHMOOR (PLATS)","LEGALDES":"W MARLOWE 327 N W TRIANG 1/2 OF 326 STRATHMOOR SUB L32 P22 PLATS, W C R 22/73 40 IRREG","lat":"42.38068617","long":"-83.18935933"},{"PARCELNO":"13024532-3","address":"20001 MACKAY","PROPNO":"20001","PROPDIR":"","PROPSTR":"MACKAY","PROPZIP":"48234","WARD":"13","owner":"Manuel Moroun","OWNERNAME2":"","OWN_TYPE":"spec","OWNERSTR":"493 MOORE ST","OWNERCITY":"PONTIAC","OWNERSTATE":"MI","OWNERZIP":"48342","PROPCLASS":"401","TAXSTATUS":"TAXABLE","SUBDIV":"MARX & SOSNOWSKIS CONANT","LEGALDES":"W MACKAY 312-313 MARX & SOSNOWSKIS CONANT AVE SUB L45 P23 PLATS, W C R 13/298 60 X 120","lat":"42.44185618","long":"-83.07633765"},{"PARCELNO":"20006299","address":"5736 LAWNDALE","PROPNO":"5736","PROPDIR":"","PROPSTR":"LAWNDALE","PROPZIP":"48210","WARD":"20","owner":"Manuel Moroun","OWNERNAME2":"","OWN_TYPE":"spec","OWNERSTR":"1642 SALINA ST","OWNERCITY":"DEARBORN","OWNERSTATE":"MI","OWNERZIP":"48120-1606","PROPCLASS":"401","TAXSTATUS":"TAXABLE","SUBDIV":"GLENWOOD-GROSFIELD & SCAN","LEGALDES":"E LAWNDALE 66 GLENWOOD-GROSFIELD & SCANLONS SUB L18 P24 PLATS, W C R 20/376 30 X 100","lat":"42.33348843","long":"-83.15121417"},{"PARCELNO":"20010494","address":"5827 TRENTON","PROPNO":"5827","PROPDIR":"","PROPSTR":"TRENTON","PROPZIP":"48210","WARD":"20","owner":"Manuel Moroun","OWNERNAME2":"","OWN_TYPE":"spec","OWNERSTR":"1642 SALINA ST","OWNERCITY":"DEARBORN","OWNERSTATE":"MI","OWNERZIP":"48120","PROPCLASS":"401","TAXSTATUS":"TAXABLE","SUBDIV":"NATIONAL PARK","LEGALDES":"W TRENTON 68 NATIONAL PARK SUB L33 P40 PLATS, W C R 20/390 30 X 128.55","lat":"42.33457003","long":"-83.15089715"},{"PARCELNO":"20010495","address":"5821 TRENTON","PROPNO":"5821","PROPDIR":"","PROPSTR":"TRENTON","PROPZIP":"48210","WARD":"20","owner":"Manuel Moroun","OWNERNAME2":"","OWN_TYPE":"spec","OWNERSTR":"1642 SALINA ST","OWNERCITY":"DEARBORN","OWNERSTATE":"MI","OWNERZIP":"48120-1606","PROPCLASS":"401","TAXSTATUS":"TAXABLE","SUBDIV":"NATIONAL PARK","LEGALDES":"W TRENTON 67 NATIONAL PARK SUB L33 P40 PLATS, W C R 20/390 30 X 128.26","lat":"42.33451059","long":"-83.15084704"},{"PARCELNO":"22058115","address":"7251 MANSFIELD","PROPNO":"7251","PROPDIR":"","PROPSTR":"MANSFIELD","PROPZIP":"48228","WARD":"22","owner":"Manuel Moroun","OWNERNAME2":"","OWN_TYPE":"spec","OWNERSTR":"5418 NECKEL","OWNERCITY":"DEARBORN","OWNERSTATE":"MI","OWNERZIP":"48126-3219","PROPCLASS":"401","TAXSTATUS":"TAXABLE","SUBDIV":"FRISCHKORNS WARREN AVE GA","LEGALDES":"W MANSFIELD 78 FRISCHKORNS WARREN AVE GDNS SUB L39 P100 PLATS, W C R 22/246 35 X 134","lat":"42.34436739","long":"-83.20240733"},{"PARCELNO":"22059470","address":"6919 ST MARYS","PROPNO":"6919","PROPDIR":"","PROPSTR":"ST MARYS","PROPZIP":"48228","WARD":"22","owner":"Manuel Moroun","OWNERNAME2":"","OWN_TYPE":"spec","OWNERSTR":"5418 NECKEL","OWNERCITY":"DEARBORN","OWNERSTATE":"MI","OWNERZIP":"48126","PROPCLASS":"401","TAXSTATUS":"TAXABLE","SUBDIV":"HELLNER ESTATES  (PLATS)","LEGALDES":"W ST MARYS 324 HELLNER ESTATES SUB L41 P4 PLATS, W C R 22/256 35 X 132","lat":"42.34305735","long":"-83.20361714"},{"PARCELNO":"22000344","address":"19519 W WARREN","PROPNO":"19519","PROPDIR":"W","PROPSTR":"WARREN","PROPZIP":"48228","WARD":"22","owner":"Manuel Moroun","OWNERNAME2":"","OWN_TYPE":"spec","OWNERSTR":"5418 NECKEL","OWNERCITY":"DEARBORN","OWNERSTATE":"MI","OWNERZIP":"48216","PROPCLASS":"201","TAXSTATUS":"TAXABLE","SUBDIV":"FRISCHKORNS ESTATES (PLAT","LEGALDES":"S WARREN 376 FRISCHKORNS ESTATES SUB L42 P93 PLATS, W C R 22/275 20 X 100","lat":"42.34316224","long":"-83.23211994"},{"PARCELNO":"20006290","address":"5674 LAWNDALE","PROPNO":"5674","PROPDIR":"","PROPSTR":"LAWNDALE","PROPZIP":"48210","WARD":"20","owner":"Manuel Moroun","OWNERNAME2":"","OWN_TYPE":"spec","OWNERSTR":"5766 TRENTON","OWNERCITY":"DETROIT","OWNERSTATE":"MI","OWNERZIP":"48210","PROPCLASS":"401","TAXSTATUS":"TAXABLE","SUBDIV":"GLENWOOD-GROSFIELD & SCAN","LEGALDES":"E LAWNDALE N 15 FT' 55 56 GLENWOOD-GROSFIELD & SCANLONS SUB L18 P24 PLATS, W C R 20/376 45 X 100","lat":"42.33274949","long":"-83.15066405"},{"PARCELNO":"20010460","address":"5772 TRENTON","PROPNO":"5772","PROPDIR":"","PROPSTR":"TRENTON","PROPZIP":"48210","WARD":"20","owner":"Manuel Moroun","OWNERNAME2":"","OWN_TYPE":"spec","OWNERSTR":"5766 TRENTON","OWNERCITY":"DETROIT","OWNERSTATE":"MI","OWNERZIP":"48210","PROPCLASS":"401","TAXSTATUS":"TAXABLE","SUBDIV":"NATIONAL PARK","LEGALDES":"E TRENTON 91 NATIONAL PARK SUB L33 P40 PLATS, W C R 20/390 30 X 120","lat":"42.33392899","long":"-83.1503447"},{"PARCELNO":"20010044","address":"5788 RENVILLE","PROPNO":"5788","PROPDIR":"","PROPSTR":"RENVILLE","PROPZIP":"48210","WARD":"20","owner":"Manuel Moroun","OWNERNAME2":"","OWN_TYPE":"spec","OWNERSTR":"5779 TRENTON","OWNERCITY":"DETROIT","OWNERSTATE":"MI","OWNERZIP":"48210","PROPCLASS":"401","TAXSTATUS":"TAXABLE","SUBDIV":"SMART FARM (PLATS ALSO P3","LEGALDES":"E RENVILLE 236 SMART FARM SUB L34 P32-3 PLATS, W C R 20/378 30 X 100","lat":"42.33485908","long":"-83.14872346"},{"PARCELNO":"20010672","address":"4358 ST JAMES","PROPNO":"4358","PROPDIR":"","PROPSTR":"ST JAMES","PROPZIP":"48210","WARD":"20","owner":"Manuel Moroun","OWNERNAME2":"","OWN_TYPE":"spec","OWNERSTR":"4358 ST JAMES ST","OWNERCITY":"DETROIT","OWNERSTATE":"MI","OWNERZIP":"48210-2098","PROPCLASS":"401","TAXSTATUS":"TAXABLE","SUBDIV":"NALLS (PLATS)","LEGALDES":"E ST JAMES 160 NALLS SUB L14 P75 PLATS, WCR 20/372 30 X 130","lat":"42.32794871","long":"-83.14958361"},{"PARCELNO":"20010671","address":"4352 ST JAMES","PROPNO":"4352","PROPDIR":"","PROPSTR":"ST JAMES","PROPZIP":"48210","WARD":"20","owner":"Manuel Moroun","OWNERNAME2":"","OWN_TYPE":"spec","OWNERSTR":"4358 ST JAMES ST","OWNERCITY":"DETROIT","OWNERSTATE":"MI","OWNERZIP":"48210-2098","PROPCLASS":"401","TAXSTATUS":"TAXABLE","SUBDIV":"NALLS (PLATS)","LEGALDES":"E ST JAMES 159 NALLS SUB L14 P75 PLATS, WCR 20/372 30 X 130","lat":"42.32787878","long":"-83.14953349"},{"PARCELNO":"20010697","address":"4361 ST JAMES","PROPNO":"4361","PROPDIR":"","PROPSTR":"ST JAMES","PROPZIP":"48210","WARD":"20","owner":"Manuel Moroun","OWNERNAME2":"","OWN_TYPE":"spec","OWNERSTR":"4361 ST JAMES","OWNERCITY":"DETROIT","OWNERSTATE":"MI","OWNERZIP":"48210","PROPCLASS":"401","TAXSTATUS":"TAXABLE","SUBDIV":"NALLS (PLATS)","LEGALDES":"W ST JAMES 140 NALLS SUB L14 P75 PLATS, WCR 20/372 30 X 125","lat":"42.32797085","long":"-83.14967685"},{"PARCELNO":"13004761-2","address":"6124 GEORGIA","PROPNO":"6124","PROPDIR":"","PROPSTR":"GEORGIA","PROPZIP":"48211","WARD":"13","owner":"Manuel Moroun","OWNERNAME2":"","OWN_TYPE":"spec","OWNERSTR":"6114 GEORGIA","OWNERCITY":"DETROIT","OWNERSTATE":"MI","OWNERZIP":"48211-1549","PROPCLASS":"401","TAXSTATUS":"TAXABLE","SUBDIV":"FRANK J ASAMS MT ELLIOTT","LEGALDES":"S GEORGIA W 25 FT 22 23 E 15 FT 24 FRANK J ASAMS MT ELLIOTT SUB L46 P54 PLATS W C R 13/286 70 X 161.30A","lat":"42.39309197","long":"-83.039541"},{"PARCELNO":"13004792","address":"4079 GEORGIA","PROPNO":"4079","PROPDIR":"","PROPSTR":"GEORGIA","PROPZIP":"48211","WARD":"13","owner":"Manuel Moroun","OWNERNAME2":"","OWN_TYPE":"spec","OWNERSTR":"6114 GEORGIA","OWNERCITY":"DETROIT","OWNERSTATE":"MI","OWNERZIP":"48211","PROPCLASS":"401","TAXSTATUS":"TAXABLE","SUBDIV":"MT ELLIOTT AVE LAND COS (","LEGALDES":"Property exempt from Ad Valorem taxes and assessed pursuant to PA 261 of 2003 expiring 12/31/2010. Property exempt from Ad Valorem taxes and assessed","lat":"42.39314675","long":"-83.04099091"},{"PARCELNO":"13004804","address":"6121 GEORGIA","PROPNO":"6121","PROPDIR":"","PROPSTR":"GEORGIA","PROPZIP":"48211","WARD":"13","owner":"Manuel Moroun","OWNERNAME2":"","OWN_TYPE":"spec","OWNERSTR":"6114 GEORGIA","OWNERCITY":"DETROIT","OWNERSTATE":"MI","OWNERZIP":"48211","PROPCLASS":"401","TAXSTATUS":"TAXABLE","SUBDIV":"MT ELLIOTT AVE LAND COS (","LEGALDES":"N GEORGIA 27 MT ELLIOTT AVE LAND COS (PLATS) L30 P84 PLATS, W C R 13/202 30X100","lat":"42.39314675","long":"-83.03966105"},{"PARCELNO":"13004803","address":"6115 GEORGIA","PROPNO":"6115","PROPDIR":"","PROPSTR":"GEORGIA","PROPZIP":"48211","WARD":"13","owner":"Manuel Moroun","OWNERNAME2":"","OWN_TYPE":"spec","OWNERSTR":"6114 GEORGIA","OWNERCITY":"DETROIT","OWNERSTATE":"MI","OWNERZIP":"48211","PROPCLASS":"401","TAXSTATUS":"TAXABLE","SUBDIV":"MT ELLIOTT AVE LAND COS (","LEGALDES":"N GEORGIA 28 MT ELLIOTT AVE LAND COS (PLATS) L30 P84 PLATS, W C R 13/202 30X100","lat":"42.39314675","long":"-83.03977061"},{"PARCELNO":"13004793","address":"4085 GEORGIA","PROPNO":"4085","PROPDIR":"","PROPSTR":"GEORGIA","PROPZIP":"48211","WARD":"13","owner":"Manuel Moroun","OWNERNAME2":"","OWN_TYPE":"spec","OWNERSTR":"6114 GEORGIA","OWNERCITY":"DETROIT","OWNERSTATE":"MI","OWNERZIP":"48211","PROPCLASS":"401","TAXSTATUS":"TAXABLE","SUBDIV":"MT ELLIOTT AVE LAND COS (","LEGALDES":"N GEORGIA 38 MT ELLIOTT AVE LAND COS (PLATS) L30 P84 PLATS, W C R 13/202 30X100","lat":"42.39314675","long":"-83.04088019"},{"PARCELNO":"22062559","address":"10020 WOODMONT","PROPNO":"10020","PROPDIR":"","PROPSTR":"WOODMONT","PROPZIP":"48227","WARD":"22","owner":"Manuel Moroun","OWNERNAME2":"","OWN_TYPE":"spec","OWNERSTR":"17437 THIRD ST","OWNERCITY":"DETROIT","OWNERSTATE":"MI","OWNERZIP":"48203","PROPCLASS":"401","TAXSTATUS":"TAXABLE","SUBDIV":"FRISCHKORNS GRAND-DALE (P","LEGALDES":"E WOODMONT 724 FRISCHKORNS GRAND-DALE SUB L50 P66 PLATS, W C R 22/196 35 X 117.75","lat":"42.36940044","long":"-83.20818365"},{"PARCELNO":"22018512","address":"20440 CHEROKEE","PROPNO":"20440","PROPDIR":"","PROPSTR":"CHEROKEE","PROPZIP":"48219","WARD":"22","owner":"Manuel Moroun","OWNERNAME2":"","OWN_TYPE":"spec","OWNERSTR":"20440 CHEROKEE","OWNERCITY":"DETROIT","OWNERSTATE":"MI","OWNERZIP":"48219-1106","PROPCLASS":"401","TAXSTATUS":"TAXABLE","SUBDIV":"CHEROKEE HEIGHTS SUB","LEGALDES":"S CHEROKEE DR 2 CHEROKEE HEIGHTS SUB L77 P46 PLATS, W C R 22/785 50 X 132.50 NEZH CERT#2007-3175,RELATED PARCEL 27073175.","lat":"42.44177226","long":"-83.26928955"},{"PARCELNO":"16002775","address":"5027 VANCOUVER","PROPNO":"5027","PROPDIR":"","PROPSTR":"VANCOUVER","PROPZIP":"48204","WARD":"16","owner":"Manuel Moroun","OWNERNAME2":"","OWN_TYPE":"spec","OWNERSTR":"20440 CHEROKEE","OWNERCITY":"DETROIT","OWNERSTATE":"MI","OWNERZIP":"48219","PROPCLASS":"401","TAXSTATUS":"TAXABLE","SUBDIV":"HOLDEN & MURRAYS NORTHWES","LEGALDES":"S VANCOUVER 118 HOLDEN & MURRAYS NWN SUB L28 P10 PLATS, W C R 16/177 32 X 127.50","lat":"42.35773358","long":"-83.12327082"},{"PARCELNO":"22115045","address":"14547 DOLPHIN","PROPNO":"14547","PROPDIR":"","PROPSTR":"DOLPHIN","PROPZIP":"48223","WARD":"22","owner":"Manuel Moroun","OWNERNAME2":"","OWN_TYPE":"spec","OWNERSTR":"20440 CHEROKEE","OWNERCITY":"DETROIT","OWNERSTATE":"MI","OWNERZIP":"48219","PROPCLASS":"401","TAXSTATUS":"TAXABLE","SUBDIV":"B E TAYLORS BRIGHTMOOR-CA","LEGALDES":"W DOLPHIN 92 B E TAYLORS BRIGHTMOOR- CANFIELD SUB L47 P63 PLATS, W C R 22/490 35 X 124.97","lat":"42.39383791","long":"-83.25911805"},{"PARCELNO":"22115879","address":"15135 DACOSTA","PROPNO":"15135","PROPDIR":"","PROPSTR":"DACOSTA","PROPZIP":"48223","WARD":"22","owner":"Manuel Moroun","OWNERNAME2":"","OWN_TYPE":"spec","OWNERSTR":"26559 BERG RD APT 337","OWNERCITY":"SOUTHFIELD","OWNERSTATE":"MI","OWNERZIP":"48034-2462","PROPCLASS":"401","TAXSTATUS":"TAXABLE","SUBDIV":"B E TAYLORS BRIGHTMOOR-PI","LEGALDES":"W DACOSTA 323 B E TAYLORS BRIGHTMOOR-PIERCE SUB L44 P91 PLATS, W C R 22/488 35 X 127.5","lat":"42.39951865","long":"-83.26051784"},{"PARCELNO":"22115880","address":"15129 DACOSTA","PROPNO":"15129","PROPDIR":"","PROPSTR":"DACOSTA","PROPZIP":"48223","WARD":"22","owner":"Manuel Moroun","OWNERNAME2":"","OWN_TYPE":"spec","OWNERSTR":"26559 BERG RD APT 337","OWNERCITY":"SOUTHFIELD","OWNERSTATE":"MI","OWNERZIP":"48034-2462","PROPCLASS":"401","TAXSTATUS":"TAXABLE","SUBDIV":"B E TAYLORS BRIGHTMOOR-PI","LEGALDES":"W DACOSTA 322 B E TAYLORS BRIGHTMOOR-PIERCE SUB L44 P91 PLATS, W C R 22/488 35 X 127.5","lat":"42.39941842","long":"-83.26050735"},{"PARCELNO":"21014523","address":"14265 HOUSTON-WHITTIER","PROPNO":"14265","PROPDIR":"","PROPSTR":"HOUSTON-WHITTIER","PROPZIP":"48205","WARD":"21","owner":"Manuel Moroun","OWNERNAME2":"","OWN_TYPE":"spec","OWNERSTR":"26559 BERG RD APT 337","OWNERCITY":"SOUTHFIELD","OWNERSTATE":"MI","OWNERZIP":"48034-2462","PROPCLASS":"401","TAXSTATUS":"TAXABLE","SUBDIV":"YOUNG STEPHEN","LEGALDES":"N HOUSTON-WHITTIER 5 STEPHEN YOUNG SUB L42 P42 PLATS, W C R 21/643 37 X 102.20","lat":"42.42066702","long":"-82.97558074"},{"PARCELNO":"21014524","address":"14271 HOUSTON-WHITTIER","PROPNO":"14271","PROPDIR":"","PROPSTR":"HOUSTON-WHITTIER","PROPZIP":"48205","WARD":"21","owner":"Manuel Moroun","OWNERNAME2":"","OWN_TYPE":"spec","OWNERSTR":"26559 BERG RD APT 337","OWNERCITY":"SOUTHFIELD","OWNERSTATE":"MI","OWNERZIP":"48034-2462","PROPCLASS":"401","TAXSTATUS":"TAXABLE","SUBDIV":"YOUNG STEPHEN","LEGALDES":"N HOUSTON-WHITTIER 4 STEPHEN YOUNG SUB L42 P42 PLATS, W C R 21/643 37 X 102.20","lat":"42.42066702","long":"-82.97544088"},{"PARCELNO":"22093005","address":"6719 AUBURN","PROPNO":"6719","PROPDIR":"","PROPSTR":"AUBURN","PROPZIP":"48228","WARD":"22","owner":"Manuel Moroun","OWNERNAME2":"","OWN_TYPE":"spec","OWNERSTR":"7424 MILLER  RD","OWNERCITY":"DEARBORN","OWNERSTATE":"MI","OWNERZIP":"48126","PROPCLASS":"401","TAXSTATUS":"TAXABLE","SUBDIV":"FRISCHKORNS ESTATES (PLAT","LEGALDES":"W AUBURN 261 FRISCHKORNS ESTATES SUB L42 P93 PLATS, W C R 22/275 35 X 124","lat":"42.33985799","long":"-83.23278778"},{"PARCELNO":"22089069","address":"6375 GRANDVILLE","PROPNO":"6375","PROPDIR":"","PROPSTR":"GRANDVILLE","PROPZIP":"48228","WARD":"22","owner":"Manuel Moroun","OWNERNAME2":"","OWN_TYPE":"spec","OWNERSTR":"7427 MILLER RD","OWNERCITY":"DETROIT","OWNERSTATE":"MI","OWNERZIP":"48126","PROPCLASS":"401","TAXSTATUS":"TAXABLE","SUBDIV":"FRISCHKORNS ESTATES (PLAT","LEGALDES":"W GRANDVILLE 736 FRISCHKORNS ESTATES SUB L42 P93 PLATS, W C R 22/275 35 X 122","lat":"42.3370386","long":"-83.22908725"},{"PARCELNO":"22089019","address":"6873 GRANDVILLE","PROPNO":"6873","PROPDIR":"","PROPSTR":"GRANDVILLE","PROPZIP":"48228","WARD":"22","owner":"Manuel Moroun","OWNERNAME2":"","OWN_TYPE":"spec","OWNERSTR":"7427 MILLER RD","OWNERCITY":"DEARBORN","OWNERSTATE":"MI","OWNERZIP":"48126","PROPCLASS":"401","TAXSTATUS":"TAXABLE","SUBDIV":"FRISCHKORNS ESTATES (PLAT","LEGALDES":"W GRANDVILLE 686 FRISCHKORNS ESTATES SUB L42 P93 PLATS, W C R 22/275 35 X 122","lat":"42.34202819","long":"-83.22925742"},{"PARCELNO":"22054799","address":"6911 FORRER","PROPNO":"6911","PROPDIR":"","PROPSTR":"FORRER","PROPZIP":"48228","WARD":"22","owner":"Manuel Moroun","OWNERNAME2":"","OWN_TYPE":"spec","OWNERSTR":"7427 MILLER RD","OWNERCITY":"DEARBORN","OWNERSTATE":"MI","OWNERZIP":"48126","PROPCLASS":"401","TAXSTATUS":"TAXABLE","SUBDIV":"HELLNER ESTATES  (PLATS)","LEGALDES":"W FORRER 109 HELLNER ESTATES SUB L41 P4 PLATS, W C R 22/256 35 X 132.50","lat":"42.3430084","long":"-83.19986766"},{"PARCELNO":"22055637","address":"6520 RUTHERFORD","PROPNO":"6520","PROPDIR":"","PROPSTR":"RUTHERFORD","PROPZIP":"48228","WARD":"22","owner":"Manuel Moroun","OWNERNAME2":"","OWN_TYPE":"spec","OWNERSTR":"7427 MILLER RD","OWNERCITY":"DEARBORN","OWNERSTATE":"MI","OWNERZIP":"48126","PROPCLASS":"401","TAXSTATUS":"TAXABLE","SUBDIV":"LAUREL PARK (PLATS)","LEGALDES":"E RUTHERFORD N 21 FT 20 S 21 FT 21 LAUREL PARK SUB L46 P69 PLATS, W C R 22/254 42 X 134.19A","lat":"42.33845121","long":"-83.20086301"},{"PARCELNO":"22074749","address":"7756 ASHTON","PROPNO":"7756","PROPDIR":"","PROPSTR":"ASHTON","PROPZIP":"48228","WARD":"22","owner":"Manuel Moroun","OWNERNAME2":"","OWN_TYPE":"spec","OWNERSTR":"7427 MILLER RD","OWNERCITY":"DEARBORN","OWNERSTATE":"MI","OWNERZIP":"48126","PROPCLASS":"401","TAXSTATUS":"TAXABLE","SUBDIV":"RICHLAND PARK (PLATS)","LEGALDES":"E ASHTON 58 RICHLAND PARK SUB L41 P63 PLATS, W C R 22/260 40 X 128","lat":"42.34924043","long":"-83.21733298"},{"PARCELNO":"22093029","address":"6401 AUBURN","PROPNO":"6401","PROPDIR":"","PROPSTR":"AUBURN","PROPZIP":"48228","WARD":"22","owner":"Manuel Moroun","OWNERNAME2":"","OWN_TYPE":"spec","OWNERSTR":"7427 MILLER RD","OWNERCITY":"DEARBORN","OWNERSTATE":"MI","OWNERZIP":"48126","PROPCLASS":"401","TAXSTATUS":"TAXABLE","SUBDIV":"FRISCHKORNS ESTATES (PLAT","LEGALDES":"W AUBURN 285 FRISCHKORNS ESTATES SUB L42 P93 PLATS, W C R 22/275 35 X 124","lat":"42.33736844","long":"-83.23270736"},{"PARCELNO":"22052787","address":"6766 MONTROSE","PROPNO":"6766","PROPDIR":"","PROPSTR":"MONTROSE","PROPZIP":"48228","WARD":"22","owner":"Manuel Moroun","OWNERNAME2":"","OWN_TYPE":"spec","OWNERSTR":"7427 MILLER RD","OWNERCITY":"DEARBORN","OWNERSTATE":"MI","OWNERZIP":"48126","PROPCLASS":"401","TAXSTATUS":"TAXABLE","SUBDIV":"WEST WARREN AVE ESTATES #","LEGALDES":"E MONTROSE 173 WEST WARREN AVE ESTATES NO 1 SUB L43 P70 PLATS, WCR 22/253 40 X 130.37A","lat":"42.34103051","long":"-83.19851332"},{"PARCELNO":"22089126","address":"6096 WESTWOOD","PROPNO":"6096","PROPDIR":"","PROPSTR":"WESTWOOD","PROPZIP":"48228","WARD":"22","owner":"Manuel Moroun","OWNERNAME2":"","OWN_TYPE":"spec","OWNERSTR":"7427 MILLER RD","OWNERCITY":"DEARBORN","OWNERSTATE":"MI","OWNERZIP":"48126","PROPCLASS":"401","TAXSTATUS":"TAXABLE","SUBDIV":"FLORENCE PARK (PLATS)","LEGALDES":"E WESTWOOD 106 AND W 9 FT OF VAC ALLEY ADJ FLORENCE PARK SUB L48 P82 PLATS, W C R 22/276 40 X 131","lat":"42.33376116","long":"-83.23010359"},{"PARCELNO":"22053451","address":"7501 MONTROSE","PROPNO":"7501","PROPDIR":"","PROPSTR":"MONTROSE","PROPZIP":"48228","WARD":"22","owner":"Manuel Moroun","OWNERNAME2":"","OWN_TYPE":"spec","OWNERSTR":"7427 MILLER RD","OWNERCITY":"DEARBORN","OWNERSTATE":"MI","OWNERZIP":"48126","PROPCLASS":"401","TAXSTATUS":"TAXABLE","SUBDIV":"GAYNOR PARK (PLATS)","LEGALDES":"W MONTROSE 133 GAYNOR PARK SUB L45 P72 PLATS, W C R 22/243 40 X 132.50","lat":"42.34744786","long":"-83.19887813"},{"PARCELNO":"22052780","address":"6710 MONTROSE","PROPNO":"6710","PROPDIR":"","PROPSTR":"MONTROSE","PROPZIP":"48228","WARD":"22","owner":"Manuel Moroun","OWNERNAME2":"","OWN_TYPE":"spec","OWNERSTR":"7427 MILLER RD","OWNERCITY":"DEARBORN","OWNERSTATE":"MI","OWNERZIP":"48126","PROPCLASS":"401","TAXSTATUS":"TAXABLE","SUBDIV":"WEST WARREN AVE ESTATES #","LEGALDES":"E MONTROSE 166 WEST WARREN AVE ESTATES NO 1 SUB L43 P70 PLATS, WCR 22/253 40 X 129.81A","lat":"42.34026126","long":"-83.19848302"},{"PARCELNO":"22058307","address":"7850 ST MARYS","PROPNO":"7850","PROPDIR":"","PROPSTR":"ST MARYS","PROPZIP":"48228","WARD":"22","owner":"Manuel Moroun","OWNERNAME2":"","OWN_TYPE":"spec","OWNERSTR":"7427 MILLER RD","OWNERCITY":"DEARBORN","OWNERSTATE":"MI","OWNERZIP":"48126","PROPCLASS":"401","TAXSTATUS":"TAXABLE","SUBDIV":"FRISCHKORNS WARREN AVE GA","LEGALDES":"E ST MARYS 3 FRISCHKORNS WARREN AVE GARDENS SUB L39 P100 PLATS, W C R 22/246 35 X 125.9A","lat":"42.35044092","long":"-83.20388404"},{"PARCELNO":"8006117","address":"6142 COMMONWEALTH","PROPNO":"6142","PROPDIR":"","PROPSTR":"COMMONWEALTH","PROPZIP":"48208","WARD":"8","owner":"Manuel Moroun","OWNERNAME2":"","OWN_TYPE":"spec","OWNERSTR":"2415 RICHTON ST","OWNERCITY":"DETROIT","OWNERSTATE":"MI","OWNERZIP":"48206","PROPCLASS":"401","TAXSTATUS":"TAXABLE","SUBDIV":"STIMSONS E I & A K    (PL","LEGALDES":"E COMMONWEALTH 36 S 5 FT 35 E I & A K STIMSONS SUB L10 P31 PLATS, W C R 8/75 35 X 110","lat":"42.36210661","long":"-83.08570144"},{"PARCELNO":"10003460","address":"2415 RICHTON","PROPNO":"2415","PROPDIR":"","PROPSTR":"RICHTON","PROPZIP":"48206","WARD":"10","owner":"Manuel Moroun","OWNERNAME2":"","OWN_TYPE":"spec","OWNERSTR":"2415 RICHTON ST","OWNERCITY":"DETROIT","OWNERSTATE":"MI","OWNERZIP":"48206-1215","PROPCLASS":"401","TAXSTATUS":"TAXABLE","SUBDIV":"BRIGGS & BELLS SUB","LEGALDES":"S RICHTON 53 BRIGGS & BELLS SUB L29 P4 PLATS, W C R 10/127 30 X 100","lat":"42.38695318","long":"-83.11410051"},{"PARCELNO":"8010271","address":"15530 LA SALLE BLVD","PROPNO":"15530","PROPDIR":"","PROPSTR":"LA SALLE BLVD","PROPZIP":"48238","WARD":"8","owner":"Manuel Moroun","OWNERNAME2":"","OWN_TYPE":"spec","OWNERSTR":"2415 RICHTON ST","OWNERCITY":"DETROIT","OWNERSTATE":"MI","OWNERZIP":"48206-1215","PROPCLASS":"401","TAXSTATUS":"TAXABLE","SUBDIV":"ROBERT OAKMANS FENKELL AV","LEGALDES":"E LASALLE 199 R OAKMANS FENKEL AVE SUB L40 P70 PLATS, W C R 8/159 30 X 130.92A","lat":"42.40589172","long":"-83.12492353"},{"PARCELNO":"9020619","address":"18042 RUSSELL","PROPNO":"18042","PROPDIR":"","PROPSTR":"RUSSELL","PROPZIP":"48203","WARD":"9","owner":"Manuel Moroun","OWNERNAME2":"","OWN_TYPE":"spec","OWNERSTR":"21420 HARVARD","OWNERCITY":"SOUTHFIELD","OWNERSTATE":"MI","OWNERZIP":"48076","PROPCLASS":"401","TAXSTATUS":"TAXABLE","SUBDIV":"CADILLAC HEIGHTS SUB OF N","LEGALDES":"E RUSSELL N 25 FT 378 S 10 FT 379 CADILLAC HEIGHTS SUB L33 P81 PLATS, W C R 9/163 35 X 120","lat":"42.4257009","long":"-83.0898437"},{"PARCELNO":"8010490","address":"15326 NORMANDY","PROPNO":"15326","PROPDIR":"","PROPSTR":"NORMANDY","PROPZIP":"48238","WARD":"8","owner":"Manuel Moroun","OWNERNAME2":"","OWN_TYPE":"spec","OWNERSTR":"21420 HARVARD","OWNERCITY":"SOUTHFIELD","OWNERSTATE":"MI","OWNERZIP":"48076","PROPCLASS":"401","TAXSTATUS":"TAXABLE","SUBDIV":"ROBERT OAKMANS PURITAN PA","LEGALDES":"E NORMANDY 106 R OAKMANS PURITAN PK SUB L34 P17 PLATS, W C R 8/158 31.52 IRREG","lat":"42.40342081","long":"-83.1260436"},{"PARCELNO":"9023622","address":"20070 ANDOVER","PROPNO":"20070","PROPDIR":"","PROPSTR":"ANDOVER","PROPZIP":"48203","WARD":"9","owner":"Manuel Moroun","OWNERNAME2":"","OWN_TYPE":"spec","OWNERSTR":"21420 HARVARD","OWNERCITY":"SOUTHFIELD","OWNERSTATE":"MI","OWNERZIP":"48076","PROPCLASS":"401","TAXSTATUS":"TAXABLE","SUBDIV":"GILMORE & CHAVENELLES SUB","LEGALDES":"E ANDOVER 81 GILMORE & CHAVENELLES SUB L38 P94 PLATS, W C R 9/193 35 X 100","lat":"42.44207064","long":"-83.09938348"},{"PARCELNO":"21070127","address":"10830 HAVERHILL","PROPNO":"10830","PROPDIR":"","PROPSTR":"HAVERHILL","PROPZIP":"48224","WARD":"21","owner":"Manuel Moroun","OWNERNAME2":"","OWN_TYPE":"spec","OWNERSTR":"1 WOODBRIDGE TOWNE","OWNERCITY":"SOUTHFIELD","OWNERSTATE":"MI","OWNERZIP":"48075","PROPCLASS":"401","TAXSTATUS":"TAXABLE","SUBDIV":"BARBERS HAYES BLVD (PLATS","LEGALDES":"E HAVERHILL 117 AND W 9 FT VAC ALLEY ADJ BARBERS HAYES BLVD SUB L48 P51 PLATS, W C R 21/821 40 X 126.67","lat":"42.41593617","long":"-82.96254906"},{"PARCELNO":"22069987","address":"19773 HARLOW","PROPNO":"19773","PROPDIR":"","PROPSTR":"HARLOW","PROPZIP":"48235","WARD":"22","owner":"Manuel Moroun","OWNERNAME2":"","OWN_TYPE":"spec","OWNERSTR":"1 WOODBRIDGE TOWNE","OWNERCITY":"SOUTHFIELD","OWNERSTATE":"MI","OWNERZIP":"48075","PROPCLASS":"401","TAXSTATUS":"TAXABLE","SUBDIV":"COLLEGE HEIGHTS (PLATS)","LEGALDES":"W HARLOW 197 AND E 9 FT OF VAC ALLEY ADJ COLLEGE HEIGHTS SUB L49 P80 PLATS, W C R 22/342 35 X 113","lat":"42.43653791","long":"-83.21643786"},{"PARCELNO":"22096689","address":"11719 EVERGREEN","PROPNO":"11719","PROPDIR":"","PROPSTR":"EVERGREEN","PROPZIP":"48228","WARD":"22","owner":"Manuel Moroun","OWNERNAME2":"","OWN_TYPE":"spec","OWNERSTR":"1 WOODBRIDGE TOWNE","OWNERCITY":"SOUTHFIELD","OWNERSTATE":"MI","OWNERZIP":"48075","PROPCLASS":"401","TAXSTATUS":"TAXABLE","SUBDIV":"MAPLES PARK # 1","LEGALDES":"W EVERGREEN ROAD 297&296 MAPLES PARK SUB NO 1 L54 P39 PLATS, W C R 22/595 40 X 100","lat":"42.37369888","long":"-83.23631814"},{"PARCELNO":"22076294","address":"10094 ROSEMONT","PROPNO":"10094","PROPDIR":"","PROPSTR":"ROSEMONT","PROPZIP":"48228","WARD":"22","owner":"Manuel Moroun","OWNERNAME2":"","OWN_TYPE":"spec","OWNERSTR":"1 WOODBRIDGE TOWNE","OWNERCITY":"SOUTHFIELD","OWNERSTATE":"MI","OWNERZIP":"48075","PROPCLASS":"401","TAXSTATUS":"TAXABLE","SUBDIV":"EMERSON PARK (PLATS)","LEGALDES":"E ROSEMONT N 20 FT 306 S 22 FT 307 AND W 9 FT OF VAC ALLEY ADJ EMERSON PARK SUB L55 P45 PLATS, W C R 22/322 42 X 134","lat":"42.36919997","long":"-83.21909292"},{"PARCELNO":"11000078-81","address":"2910 E WOODBRIDGE","PROPNO":"2910","PROPDIR":"E","PROPSTR":"WOODBRIDGE","PROPZIP":"48207","WARD":"11","owner":"Manuel Moroun","OWNERNAME2":"","OWN_TYPE":"spec","OWNERSTR":"250 E HARBORTOWN DR APT 1209","OWNERCITY":"DETROIT","OWNERSTATE":"MI","OWNERZIP":"48207","PROPCLASS":"301","TAXSTATUS":"TAXABLE","SUBDIV":"SUB OF PT JOS CAMPAU FARM","LEGALDES":"S WOODBRIDGE 3 THRU 5 BLKS 9 SUB OF PT JOS CAMPAU FARM L5 P26 PLATS, W C R 11/13 82 IRREG","lat":"42.33884741","long":"-83.01907908"},{"PARCELNO":"13000116.13","address":"250 E HARBORTOWN DR 131","PROPNO":"250","PROPDIR":"E","PROPSTR":"HARBORTOWN DR","PROPZIP":"","WARD":"13","owner":"Manuel Moroun","OWNERNAME2":"","OWN_TYPE":"spec","OWNERSTR":"250 E HARBORTOWN DR APT 1209","OWNERCITY":"DETROIT","OWNERSTATE":"MI","OWNERZIP":"48207","PROPCLASS":"403","TAXSTATUS":"TAXABLE","SUBDIV":"","LEGALDES":"S JEFFERSON E UNIT 131 WAYNE COUNTY CONDOMINIUM SUB PLAN NO 807 RECORDED MASTER DEED L414091 P373-470 WCR 13/351 1,031 SF NEZ REHAB CERT #N2005-0237,","lat":"42.34197825","long":"-83.01206218"},{"PARCELNO":"11000085","address":"2930 E JEFFERSON","PROPNO":"2930","PROPDIR":"E","PROPSTR":"JEFFERSON","PROPZIP":"48207","WARD":"11","owner":"Manuel Moroun","OWNERNAME2":"","OWN_TYPE":"spec","OWNERSTR":"250 E HARBORTOWN DR APT 1209","OWNERCITY":"DETROIT","OWNERSTATE":"MI","OWNERZIP":"48207","PROPCLASS":"201","TAXSTATUS":"TAXABLE","SUBDIV":"SUB OF PT JOS CAMPAU FARM","LEGALDES":"S JEFFERSON 5 BLK 11 SUB OF PT JOS CAMPAU FARM L5 P26 PLATS, W C R 11/13 56 IRREG","lat":"42.33985333","long":"-83.01884952"},{"PARCELNO":"1002938","address":"77 OWEN","PROPNO":"77","PROPDIR":"","PROPSTR":"OWEN","PROPZIP":"48202","WARD":"1","owner":"Manuel Moroun","OWNERNAME2":"","OWN_TYPE":"spec","OWNERSTR":"109 OWEN","OWNERCITY":"DETROIT","OWNERSTATE":"MI","OWNERZIP":"48202","PROPCLASS":"401","TAXSTATUS":"TAXABLE","SUBDIV":"OWEN & BARTLETTS","LEGALDES":"N OWEN 5 OWEN & BARTLETTS L15 P52 PLATS, W C R 1/119 50 X 110","lat":"42.3833354","long":"-83.0802806"},{"PARCELNO":"1002939","address":"89 OWEN","PROPNO":"89","PROPDIR":"","PROPSTR":"OWEN","PROPZIP":"48202","WARD":"1","owner":"Manuel Moroun","OWNERNAME2":"","OWN_TYPE":"spec","OWNERSTR":"109 OWEN","OWNERCITY":"DETROIT","OWNERSTATE":"MI","OWNERZIP":"48202","PROPCLASS":"401","TAXSTATUS":"TAXABLE","SUBDIV":"OWEN & BARTLETTS","LEGALDES":"N OWEN 6 OWEN & BARTLETTS L15 P52 PLATS, W C R 1/119 50 X 110","lat":"42.38339601","long":"-83.08011976"},{"PARCELNO":"1002941","address":"109 OWEN","PROPNO":"109","PROPDIR":"","PROPSTR":"OWEN","PROPZIP":"48202","WARD":"1","owner":"Manuel Moroun","OWNERNAME2":"","OWN_TYPE":"spec","OWNERSTR":"109 OWEN","OWNERCITY":"DETROIT","OWNERSTATE":"MI","OWNERZIP":"48202","PROPCLASS":"401","TAXSTATUS":"TAXABLE","SUBDIV":"OWEN & BARTLETTS","LEGALDES":"N OWEN 8 OWEN & BARTLETTS L15 P52 PLATS, W C R 1/119 50 X 110","lat":"42.38351606","long":"-83.07978992"},{"PARCELNO":"1002942","address":"119 OWEN","PROPNO":"119","PROPDIR":"","PROPSTR":"OWEN","PROPZIP":"48202","WARD":"1","owner":"Manuel Moroun","OWNERNAME2":"","OWN_TYPE":"spec","OWNERSTR":"109 OWEN","OWNERCITY":"DETROIT","OWNERSTATE":"MI","OWNERZIP":"48202","PROPCLASS":"401","TAXSTATUS":"TAXABLE","SUBDIV":"OWEN & BARTLETTS","LEGALDES":"N OWEN W 25 FT OF LOT 9 OWEN & BARTLETTS L15 P52 PLATS, W C R 1/119 25 X 110 CITY SOLD QCD 4/16/01 SPLIT SALE PART FROM 01002942","lat":"42.3835755","long":"-83.07961975"},{"PARCELNO":"22074696","address":"6880 ASHTON","PROPNO":"6880","PROPDIR":"","PROPSTR":"ASHTON","PROPZIP":"48228","WARD":"22","owner":"Manuel Moroun","OWNERNAME2":"","OWN_TYPE":"spec","OWNERSTR":"6874 ASHTON AVE","OWNERCITY":"DETROIT","OWNERSTATE":"MI","OWNERZIP":"48228","PROPCLASS":"401","TAXSTATUS":"TAXABLE","SUBDIV":"FRISCHKORNS WARREN AVE PA","LEGALDES":"E ASHTON 41 FRISCHKORNS WARREN AVE PARK SUB L39 P89 PLATS, W C R 22/270 40 X 128","lat":"42.34232074","long":"-83.21703344"},{"PARCELNO":"22074695","address":"6874 ASHTON","PROPNO":"6874","PROPDIR":"","PROPSTR":"ASHTON","PROPZIP":"48228","WARD":"22","owner":"Manuel Moroun","OWNERNAME2":"","OWN_TYPE":"spec","OWNERSTR":"6874 ASHTON AVE","OWNERCITY":"DETROIT","OWNERSTATE":"MI","OWNERZIP":"48228","PROPCLASS":"401","TAXSTATUS":"TAXABLE","SUBDIV":"FRISCHKORNS WARREN AVE PA","LEGALDES":"E ASHTON 42 FRISCHKORNS WARREN AVE PARK SUB L39 P89 PLATS, W C R 22/270 40 X 128","lat":"42.34221118","long":"-83.21703344"},{"PARCELNO":"22074691","address":"6844 ASHTON","PROPNO":"6844","PROPDIR":"","PROPSTR":"ASHTON","PROPZIP":"48228","WARD":"22","owner":"Manuel Moroun","OWNERNAME2":"","OWN_TYPE":"spec","OWNERSTR":"6874 ASHTON AVE","OWNERCITY":"DETROIT","OWNERSTATE":"MI","OWNERZIP":"48228","PROPCLASS":"401","TAXSTATUS":"TAXABLE","SUBDIV":"FRISCHKORNS WARREN AVE PA","LEGALDES":"E ASHTON 46 FRISCHKORNS WARREN AVE PARK SUB L39 P89 PLATS, W C R 22/270 40 X 128","lat":"42.34177061","long":"-83.21701363"},{"PARCELNO":"9010121","address":"17826 CHAREST","PROPNO":"17826","PROPDIR":"","PROPSTR":"CHAREST","PROPZIP":"48234","WARD":"9","owner":"Manuel Moroun","OWNERNAME2":"","OWN_TYPE":"spec","OWNERSTR":"43137 VENTURE STE 105","OWNERCITY":"LANCASTER","OWNERSTATE":"CA","OWNERZIP":"93536","PROPCLASS":"401","TAXSTATUS":"TAXABLE","SUBDIV":"DODGE WOODLANDS  (PLATS)","LEGALDES":"E CHAREST 352 DODGE WOODLANDS SUB L32 P81 PLATS, W C R 9/158 30 X 100","lat":"42.42380337","long":"-83.06997228"},{"PARCELNO":"06003202-46","address":"1128 WEBB","PROPNO":"1128","PROPDIR":"","PROPSTR":"WEBB","PROPZIP":"48206","WARD":"6","owner":"Manuel Moroun","OWNERNAME2":"","OWN_TYPE":"spec","OWNERSTR":"43137 VENTURE STE 105","OWNERCITY":"LANCASTER","OWNERSTATE":"CA","OWNERZIP":"93536","PROPCLASS":"201","TAXSTATUS":"TAXABLE","SUBDIV":"ROBERT OAKMANS HAMILTON B","LEGALDES":"N WEBB S 68.09 FT 49 ROBERT OAKMANS HAMILTON BLVD SUB L29 P37 PLATS, W C R 6/156 60 X 67.65A","lat":"42.38940882","long":"-83.09783731"},{"PARCELNO":"9010122","address":"17832 CHAREST","PROPNO":"17832","PROPDIR":"","PROPSTR":"CHAREST","PROPZIP":"48234","WARD":"9","owner":"Manuel Moroun","OWNERNAME2":"","OWN_TYPE":"spec","OWNERSTR":"44447 VALLEY CENTRAL WAY STE 215","OWNERCITY":"LANCASTER","OWNERSTATE":"CA","OWNERZIP":"93536","PROPCLASS":"401","TAXSTATUS":"TAXABLE","SUBDIV":"DODGE WOODLANDS  (PLATS)","LEGALDES":"E CHAREST 351 DODGE WOODLANDS SUB L32 P81 PLATS, W C R 9/158 30 X 100","lat":"42.42387038","long":"-83.06997427"},{"PARCELNO":"15011730","address":"2181 CONCORD","PROPNO":"2181","PROPDIR":"","PROPSTR":"CONCORD","PROPZIP":"48207","WARD":"15","owner":"Manuel Moroun","OWNERNAME2":"","OWN_TYPE":"spec","OWNERSTR":"44447 VALLEY CENTRAL WAY STE 215","OWNERCITY":"LANCASTER","OWNERSTATE":"CA","OWNERZIP":"93536","PROPCLASS":"401","TAXSTATUS":"TAXABLE","SUBDIV":"MILLS SUB NO 3","LEGALDES":"W CONCORD S 25 FT 30 N 5 FT 31 MILLS SUB NO 3 L26 P12 PLATS, W C R 15/32 30 X 153.27","lat":"42.35559135","long":"-83.01142749"},{"PARCELNO":"15011703","address":"2507 CONCORD","PROPNO":"2507","PROPDIR":"","PROPSTR":"CONCORD","PROPZIP":"48207","WARD":"15","owner":"Manuel Moroun","OWNERNAME2":"","OWN_TYPE":"spec","OWNERSTR":"44447 VALLEY CENTRAL WAY STE 215","OWNERCITY":"LANCASTER","OWNERSTATE":"CA","OWNERZIP":"93536","PROPCLASS":"401","TAXSTATUS":"TAXABLE","SUBDIV":"MILLS SUB NO 3","LEGALDES":"W CONCORD 1 MILLS SUB NO 3 L26 P12 PLATS, W C R 15/32 30 X 153.27","lat":"42.35792123","long":"-83.01297879"},{"PARCELNO":"21005269","address":"14231 EVANSTON","PROPNO":"14231","PROPDIR":"","PROPSTR":"EVANSTON","PROPZIP":"48224","WARD":"21","owner":"Manuel Moroun","OWNERNAME2":"","OWN_TYPE":"spec","OWNERSTR":"44447 VALLEY CENTRAL WAY STE 215","OWNERCITY":"LANCASTER","OWNERSTATE":"CA","OWNERZIP":"93536","PROPCLASS":"401","TAXSTATUS":"TAXABLE","SUBDIV":"DAVID TROMBLYS HARPER AVE","LEGALDES":"N EVANSTON 333 DAVID TROMBLYS HARPER AVE SUB NO 1 L51 P24 PLATS, W C R 21/758 35 X 100","lat":"42.40474826","long":"-82.9672863"},{"PARCELNO":"21005166","address":"12281 EVANSTON","PROPNO":"12281","PROPDIR":"","PROPSTR":"EVANSTON","PROPZIP":"48213","WARD":"21","owner":"Manuel Moroun","OWNERNAME2":"","OWN_TYPE":"spec","OWNERSTR":"44447 VALLEY CENTRAL WAY STE 215","OWNERCITY":"LANCASTER","OWNERSTATE":"CA","OWNERZIP":"93536","PROPCLASS":"401","TAXSTATUS":"TAXABLE","SUBDIV":"BARRETT & WALSHS HARPER A","LEGALDES":"N EVANSTON 273 BARRETT & WALSHS HARPER AVE SUB NO 3 L44 P48 PLATS, W C R 21/666 40 X 146.75A","lat":"42.40066669","long":"-82.98114843"},{"PARCELNO":"21007544","address":"12750 LONGVIEW","PROPNO":"12750","PROPDIR":"","PROPSTR":"LONGVIEW","PROPZIP":"48213","WARD":"21","owner":"Manuel Moroun","OWNERNAME2":"","OWN_TYPE":"spec","OWNERSTR":"44447 VALLEY CENTRAL WAY STE 215","OWNERCITY":"LANCASTER","OWNERSTATE":"CA","OWNERZIP":"93536","PROPCLASS":"401","TAXSTATUS":"TAXABLE","SUBDIV":"GRATIOT GARDENS (PLATS)","LEGALDES":"S LONGVIEW 258 GRATIOT GARDENS SUB L32 P14 PLATS, W C R 21/455 40 X 150","lat":"42.40770294","long":"-82.9786414"},{"PARCELNO":"21007131","address":"14234 ELMDALE","PROPNO":"14234","PROPDIR":"","PROPSTR":"ELMDALE","PROPZIP":"48213","WARD":"21","owner":"Manuel Moroun","OWNERNAME2":"","OWN_TYPE":"spec","OWNERSTR":"44447 VALLEY CENTRAL WAY STE 215","OWNERCITY":"LANCASTER","OWNERSTATE":"CA","OWNERZIP":"93536","PROPCLASS":"401","TAXSTATUS":"TAXABLE","SUBDIV":"GRATIOT GARDENS (PLATS)","LEGALDES":"S ELMDALE 569 GRATIOT GARDENS SUB L32 P14 PLATS, W C R 21/455 40 X 150","lat":"42.4095025","long":"-82.97002121"},{"PARCELNO":"21007642","address":"10990 LONGVIEW","PROPNO":"10990","PROPDIR":"","PROPSTR":"LONGVIEW","PROPZIP":"48213","WARD":"21","owner":"Manuel Moroun","OWNERNAME2":"","OWN_TYPE":"spec","OWNERSTR":"44447 VALLEY CENTRAL WAY STE 215","OWNERCITY":"LANCASTER","OWNERSTATE":"CA","OWNERZIP":"93536","PROPCLASS":"401","TAXSTATUS":"TAXABLE","SUBDIV":"GRATIOT GARDENS (PLATS)","LEGALDES":"S LONGVIEW 360 GRATIOT GARDENS SUB L32 P14 PLATS, W C R 21/455 40 X 150","lat":"42.40286253","long":"-82.99264163"},{"PARCELNO":"21059992","address":"626 PHILIP","PROPNO":"626","PROPDIR":"","PROPSTR":"PHILIP","PROPZIP":"48215","WARD":"21","owner":"Manuel Moroun","OWNERNAME2":"","OWN_TYPE":"spec","OWNERSTR":"44447 VALLEY CENTRAL WAY STE 215","OWNERCITY":"LANCASTER","OWNERSTATE":"CA","OWNERZIP":"93536","PROPCLASS":"401","TAXSTATUS":"TAXABLE","SUBDIV":"FOX CREEK (PLATS)","LEGALDES":"E PHILIP 753 FOX CREEK SUB L25 P73 PLATS, W C R 21/295 30 X 111","lat":"42.36970814","long":"-82.93947292"},{"PARCELNO":"22101929","address":"12817 STOUT","PROPNO":"12817","PROPDIR":"","PROPSTR":"STOUT","PROPZIP":"48223","WARD":"22","owner":"Manuel Moroun","OWNERNAME2":"","OWN_TYPE":"spec","OWNERSTR":"44447 VALLEY CENTRAL WAY STE 215","OWNERCITY":"LANCASTER","OWNERSTATE":"CA","OWNERZIP":"93536","PROPCLASS":"401","TAXSTATUS":"TAXABLE","SUBDIV":"BRIGHTMOOR-RIGOULOT (PLAT","LEGALDES":"W STOUT 400 BRIGHTMOOR-RIGOULOT SUB L49 P14 PLATS, W C R 22/515 35 X 125","lat":"42.38182722","long":"-83.24083803"},